"STATE_CODE","WELL_KID","OPERATOR_NAME","CURRENT_OPERATOR_NAME","LEASE_NAME","API","TOWNSHIP","TOWNSHIP_DIRECTION","RANGE","RANGE_DIRECTION","SECTION","LONGITUDE","LATITUDE","SPOT","BOXES","START_DEPTH","END_DEPTH","PHOTOS"
"Unknown","1031009926","KGS","unavailable","Shawnee Rock Quarry Bonner Springs ","","0","S","0","W","0","","","    ","26","","0","NO"
"Colorado","1006461851","CITIES SERVICE CO","unavailable","CS 16-C","","5","N","13","E","31","","","    ","2","5454","5472","NO"
"Colorado","1046072011","Rosewood Resources Inc.","unavailable","Soehner J 1-33","05-125-08639","2","S","42","W","33","","","   SW SE","54","1608","1728","NO"
"Colorado","1005828161","MULL DRILLING","unavailable","GREENWOOD 1","","10","S","47","W","35","","","   SE SE","3","5912","5938","NO"
"Colorado","1005828180","TIGER OIL","unavailable","LOWE 1","","11","S","46","W","1","","","  NE NE NE","2","5129","5151","NO"
"Colorado","1006463125","MURFIN DRILLING CO","unavailable","SIDE BOTTOM 2-29","","12","S","44","W","29","","","    ","7","4298","4343","NO"
"Colorado","1036878656","Murfin Drilling Company","unavailable","Pfeifer 1-32","","12","S","44","W","32","","","   NW SE","6","4261","4310","YES"
"Colorado","1006461386","MULL DRILLING","unavailable","BRAUCKMAN FARM 1","","12","S","53","W","1","","","   SE SW","8","6880","6962.4","NO"
"Colorado","1006461385","MULL DRILLING","unavailable","BRAUCKMAN FARM 3","","12","S","53","W","1","","","C   NW SE","4","6855","6885","NO"
"Colorado","1005832398","MULL DRLG.","unavailable","KLEPPER MULL 4","05-017-07377","13","S","44","W","32","","","   NW NE","28","5435.8","5570","YES"
"Colorado","1038330849","Mull Drilling Co., Inc.","unavailable","CHAMPLIN-ALDRICH 3","","13","S","44","W","33","","","   NW NE","50","5415","5493.5","YES"
"Colorado","1005828340","MULL DRILLING COMPANY INC","unavailable","VAUGHN 1","05-017-06566","13","S","47","W","20","","","   SE SE","8","5365","5418","NO"
"Colorado","1006463123","MURFIN DRILLING COMPANY","unavailable","S-S-M COLORADO STATE 1-16","05-073-06137","13","S","55","W","16","","","   SW SW","6","2825","7183","NO"
"Colorado","1005828524","MULL DRLG","unavailable","MC CORMICK 'B' 1","","14","S","49","W","10","","","C   NW NW","15","5429","5500","YES"
"Colorado","1006461111","MURFIN DRILLING CO","unavailable","CARR 1-16","","16","S","21","W","21","","","  NW SW SW","19","6074","6141","NO"
"Colorado","1006461883","GERMANY","unavailable","OWENS 1","","17","S","48","W","2","","","    ","3","5048","5075","NO"
"Colorado","1006461381","MULL DRILLING","unavailable","UPRC RUST 1","","17","S","50","W","31","","","    ","22","5342","5422","NO"
"Colorado","1044948124","Mull Drilling Company Inc.","unavailable","Tallman Enterprises 1-27","05-061-06872","18","S","45","W","27","",""," NW NW NE SE","29","4085","4148","YES"
"Colorado","1044193012","CHEVRON OIL","unavailable","EARL J MUIR 1","05-097-08400","18","S","45","W","35","","","    ","11","4754","4861","NO"
"Colorado","1044193013","GENERAL AMERICAN OIL","unavailable","FEDERAL 1-6","05-097-26000","18","S","52","W","6","","","    ","20","4816","6105","NO"
"Colorado","1006462329","RESOURCES EXPL","unavailable","FRAZEE - BOLYARD 1","5-097-20200","19","S","44","W","35","","","    ","2","4163","4180","NO"
"Colorado","1033974606","FREMONT PETROLEUM CO","unavailable","HARRISON 3","05-061-06011","19","S","45","W","9","","","    ","10","4726","4796","NO"
"Colorado","1006463101","PLAINS PETROLEUM","unavailable","STATE 1-1","","20","S","17","W","1","","","    ","6","3000","5113","NO"
"Colorado","1006462409","MICHIGAN-WISCONSIN","unavailable","BOLTON 2-7 ","","20","S","52","W","7","","","    ","4","5342","5351","NO"
"Colorado","1005828696","I T I O","unavailable","ARBES 1","","21","S","48","W","2","","","    ","1","4780","4795","NO"
"Colorado","1006462406","MICHIGAN-WISCONSIN","unavailable","L.W. BAILEY 1-35","","25","S","45","W","35","","","   NW NW","2","","0","NO"
"Colorado","1006463112","SOUTHWESTERN EXPL","unavailable","RUTHERFORD 1","","29","S","45","W","6","","","    ","22","5250","5829","NO"
"Colorado","1006463111","SOUTHWESTERN EXPL","unavailable","RUTHERFORD 1","","29","S","45","W","6","","","    ","3","5815","5829","NO"
"Colorado","1006461897","PAN AMERICAN PETROLEUM CORP","unavailable","R. RUTHERFORD (McBRIDE) 1-5","","31","S","44","W","5","","","    ","21","2554","5687","NO"
"Colorado","1006463113","MCBRIDE W C","unavailable","ROLLINS - RUTHERFORD 1-8","","31","S","44","W","8","","","    ","7","3270","3319","NO"
"Colorado","1006461304","TXO PRODUCTION CORP","unavailable","1A SLOAN ","","33","S","41","W","9","","","    ","17","3060","3103.5","NO"
"Colorado","1006463128","SKELLY OIL CO","unavailable","HANKINS 1","","33","S","44","W","34","","","    ","1","6015","6171","NO"
"Colorado","1005832979","J.M. Huber Corp.","unavailable","MORRIS 1","","34","S","41","W","33","","","  SE SE NW","1","","0","NO"
"Colorado","1024022238","LEWIS & CLARK","unavailable","SCHAEFFER STATE CORE 1 1-LKC","","","S","","W","","","","    ","10","4275","4445","NO"
"Colorado","1024021871","M&J","unavailable","PRICE AMOCO 23-2","","","S","","W","","","","    ","2","4722","4725","NO"
"Colorado","1024022198","HUSKY OIL","unavailable","BROOKS 6","","","S","","W","","","","    ","6","3384","3403","NO"
"Colorado","1037791492","TICORA","unavailable","BIMBA 13-21","05-125-09842","","S","","W","","","","    ","24","1305","1490","NO"
"Colorado","1024022621","MURFIN","unavailable","BLEDSOE 2-2","","","S","","","","","","    ","2","2023","2043","NO"
"Colorado","1024021620","MULL DRILLING","unavailable","MAUL 3","","","","","","","","","    ","22","5148","5208","NO"
"Colorado","1024022397","","unavailable","HOWARD TW 1-A","","","S","","","","","","    ","2","250","267.8","NO"
"Colorado","1024022293","TXO","unavailable","SLOAN 1","","","S","","","","","","    ","11","3107","3135.9","NO"
"Colorado","1024022287","MULL DRILLING","unavailable","LUCILLE WHITE TRUST A 2","","","S","","","","","","    ","15","5145","5185","NO"
"Colorado","1024022277","SAMPSON OIL","unavailable","HAMBLETON 1-6","","","S","","","","","","    ","4","5286","5315","NO"
"Colorado","1024021617","MULL DRILLING","unavailable","LUCILLE WHITE TRUST A 4","","","S","","","","","","    ","19","5140","5190","NO"
"Colorado","1024021825","MOBIL","unavailable","TANNER 1","","","","","","","","","    ","31","5465","5970","NO"
"Colorado","1024022254","MULL DRILLING","unavailable","HOWARD CORE 2 1-A","","","S","","","","","","    ","17","5256","5308","NO"
"Colorado","1024022229","LEWIS & CLARK","unavailable","LL. TRUST 2-16","","","S","","","","","","    ","19","5395","5443","NO"
"Colorado","1024022228","LEWIS & CLARK","unavailable","LL. TRUST 2-16","","","S","","","","","","    ","17","5394","5519","NO"
"Colorado","1024021619","MULL DRILLING","unavailable","MAUL 1","","","S","","","","","","    ","17","5141","5189.9","NO"
"Colorado","1024022255","MULL DRILLING","unavailable","HOWARD CORE 3 1-A","","","S","","","","","","    ","14","5300","5342","NO"
"Florida","1024022662","Oxy USA, Inc.","unavailable","REED C-8W ","","5","S","8","E","18","","","    ","2","412","3090","NO"
"Florida","1024022276","","unavailable","EK (EAST KEY) 4","","","S","","W","","","","    ","3","12","37.4","NO"
"Florida","1024022278","USGS","unavailable","KEY LARGO ","","","S","","W","","","","    ","3","10","30","NO"
"Florida","1024022281","USGS","unavailable","KEY LARGO 2","","","S","","W","","","","    ","2","9","23","NO"
"Florida","1024022282","","unavailable","KEY LARGO NORTH SIDE RH-5","","","S","","W","","","","    ","9","9","50","NO"
"Florida","1024022285","","unavailable","LARGO LODGE RH-7","","","S","","W","","","","    ","3","10","35","NO"
"Florida","1024022599","CONTINENTAL?","unavailable","COTTON KEY ","","","S","","W","","","","    ","3","10","45","NO"
"Florida","1024022600","CONTINENTAL?","unavailable","EAST KEY EKO","","","S","","W","","","","    ","5","7","50","NO"
"Florida","1024022601","CONTINENTAL?","unavailable","TWIN KEY TK","","","S","","W","","","","    ","2","10","48","NO"
"Florida","1024022602","CONTINENTAL?","unavailable","BLACK BETSY KEY BB","","","S","","W","","","","    ","4","10","40","NO"
"Florida","1024022603","CONTINENTAL?","unavailable","PARK KEY PK","","","S","","W","","","","    ","7","6","50","NO"
"Florida","1024022605","CONTINENTAL?","unavailable","FBRK ","","","S","","W","","","","    ","3","","0","NO"
"Florida","1024022606","CONTINENTAL?","unavailable","LK 5","","","S","","W","","","","    ","2","42.6","50","NO"
"Florida","1024022607","CONTINENTAL?","unavailable","EK (EAST KEY) 3","","","S","","W","","","","    ","4","11","43.3","NO"
"Florida","1024022283","","unavailable","KEY LARGO RH-4","","","S","","W","","","","    ","3","10","38.5","NO"
"Florida","1024022284","","unavailable","EAST COAST KEY LARGO RH-6","","","S","","W","","","","    ","4","10","43","NO"
"Florida","1024022273","","unavailable","LK5 ","","","S","","W","","","","    ","1","10","21.5","NO"
"Florida","1024022274","","unavailable","EK (EAST KEY) 1","","","S","","W","","","","    ","1","","5","NO"
"Florida","1024022275","","unavailable","EK (EAST KEY) 2","","","S","","W","","","","    ","5","11.6","56.5","NO"
"Florida","1024022619","BIG PINE","unavailable","FRESH PHREATIC 8","","","S","","","","","","    ","1","","20","NO"
"Iowa","1045048024","Greg Ludvigson","unavailable","Cretaceous Sample Inventory ","14-001-12345","","","","","","","","    ","14","","0","NO"
"Kansas","1028187622","KANSAS GEOLOGICAL SURVEY","unavailable","W. GAYDUSEK II 1","","1","S","2","E","10","-97.1993748","39.9834396","  NW SW NW","39","19.2","461.6","YES"
"Kansas","1045107593","KDOT","unavailable","75-66 K-7048-01 (US-75 over Rock Creek Bridge) CD 2","","1","S","14","E","1","-95.7961402","39.999515","  NW NW NE","2","10.4","31","NO"
"Kansas","1045088452","KDOT","unavailable","75-66 K-7048-01 (US-75 over Rock Creek Bridge) CD 1","","1","S","14","E","1","-95.7961402","39.999515","  NW NW NE","3","11.9","47.8","NO"
"Kansas","1045101564","KDOT","unavailable","75-66 K-7048-01 (US-75 over Rock Creek Bridge) CD 3","","1","S","14","E","1","-95.7961402","39.999515","  NW NW NE","4","8","47","NO"
"Kansas","1002934584","ROXY RESOURCES","unavailable","SCHNEIDER 1-14","15-131-20046","1","S","14","E","14","-95.8200108","39.9604344"," NW NW SE SW","1","370","3830","NO"
"Kansas","1030614503","Evergreen Operating Corp.","Heartland Oil & Gas, Inc.","Reschke 34-34","15-013-20032","1","S","16","E","34","-95.608939","39.915694","   SW SE","108","1400","2270","NO"
"Kansas","1006461409","KDOT","unavailable","7-22 K-0243-01 Squaw Creek CD 9","","1","S","19","E","6","-95.3264941","39.9906081","    SE","3","","0","NO"
"Kansas","1031899155","KDOT","unavailable","36-58 K-2066-01 (US-36 over Spring Creek) CD 1","","2","S","8","E","33","-96.5374901","39.840502","  NW NW NW","5","","0","NO"
"Kansas","1006461408","KDOT","unavailable","36-66 K-4370-01 US-36 over South Fork Nemaha River CD 1","","2","S","12","E","26","-96.0424559","39.845127","    S2","6","","0","NO"
"Kansas","1002934515","Ohio Oil Co.","unavailable","Lamparter 1","15-131-00019","2","S","14","E","3","-95.8374895","39.9050882","   NE SW","1","","0","NO"
"Kansas","1027634411","HUMBLE OIL & RFG. CO.","unavailable","STRAHM 1","15-131-19010","2","S","14","E","13","-95.8058128","39.8807399","  NW SW NW","5","2841","3510","NO"
"Kansas","1031769730","KDOT","unavailable","36-66-K-3328-01 Bridge US-36 over Craig Creek CD 1","","2","S","14","E","34","-95.8442883","39.8411005","NW NW NW NW NW","3","","0","NO"
"Kansas","1025687266","Forest City LLC","Forest City LLC","HOPP 1-16","15-043-20027","2","S","19","E","16","-95.2872954","39.8727886"," N2 SW SE SE","122","815.8","1832.3","NO"
"Kansas","1006461429","KDOT","unavailable","36-101 K-4044-01 1.14","","3","S","1","E","5","-97.3482778","39.8153248","   SW SW","3","","0","NO"
"Kansas","1046115851","KDOT","unavailable","KA-3959-01 (Cret./Perm. Boundary Investigation) KGS 2","","3","S","3","E","23","-97.0493554","39.7781088"," NE SE SE NE","2","4.3","22.6","NO"
"Kansas","1024021584","CAREY OIL","unavailable","GOWDY 4","","3","N","9","E","1","","","    ","3","4622","4638","NO"
"Kansas","1045088457","KDOT","unavailable","63-66 K-6364-01 (K-63 over Tennessee Creek) CD 1","","3","S","12","E","11","-96.0398666","39.8035539","   NW SE","1","70.7","82.3","NO"
"Kansas","1022241654","Kansas Geological Survey","unavailable","WILLIAM R. EMERY TRUST 1","15-131-20167","3","S","13","E","18","-96.0134895","39.7835131"," SW SW SW SW","38","535","1063","NO"
"Kansas","1002934610","TEXAS EL-DORADO OIL","unavailable","NORRIE-SCOBY 83-2","15-131-20073","3","S","14","E","1","-95.7999803","39.8147886","   SE SW","13","4000","4045","NO"
"Kansas","1002934586","BRANDT PROD","unavailable","NORRIE 1","15-131-20048","3","S","14","E","12","-95.8064109","39.799087","    NW","1","370","3830","NO"
"Kansas","1025687259","Forest City LLC","Forest City LLC","Tietjens 1-12","15-013-20030","3","S","18","E","12","-95.3537722","39.8119738"," W2 NW NE NW","119","885.6","1898.5","NO"
"Kansas","1002887925","Terra Resources","unavailable","Bechtold 1","15-013-20009","3","S","18","E","16","-95.4031209","39.7890327","C   NW SE","6","2430","2464","NO"
"Kansas","1030386348","Evergreen Operating Corp.","Heartland Oil & Gas, Inc.","Johnson Farms 14-2-WD","15-043-20041","3","S","20","E","2","-95.1512552","39.8137029","  SW SW SW","78","1070","1735.1","NO"
"Kansas","1024491709","El Paso Production Company","El Paso Production Company","FCB COREHOLE 2","15-043-20034","3","S","21","E","6","-95.1085876","39.8249055"," NE SW NE NW","174","80","1704","YES"
"Kansas","1030214926","Evergreen Operating Corp.","Heartland Oil & Gas, Inc.","Grable 12-27","15-043-20040","3","S","21","E","27","-95.0570593","39.7627805","  SW SW NW","91","1019","1740","NO"
"Kansas","1002880644","PRODUCERS ENGINEERING","unavailable","FINN 1-4","15-117-20022","4","S","7","E","4","-96.642489","39.7340474","  S2 S2 NE","3","2130","3960","NO"
"Kansas","1044190230","Kansas Dept. of Transportation","unavailable","KDOT 7","","4","S","7","E","21","-96.6389926","39.6869243","  SE NE SE","6","4.3","58","NO"
"Kansas","1044190228","Kansas Dept. of Transportation","unavailable","KDOT 6","","4","S","7","E","21","-96.6389926","39.6869243","  SE NE SE","3","1.4","29","NO"
"Kansas","1044190226","Kansas Dept. of Transportation","unavailable","KDOT 5","","4","S","7","E","21","-96.6389926","39.6869243","  SE NE SE","5","30.9","83","NO"
"Kansas","1044190224","Kansas Dept. of Transportation","unavailable","KDOT 4","","4","S","7","E","21","-96.6389926","39.6869243","  SE NE SE","5","21.7","73","NO"
"Kansas","1046085190","KDOT","unavailable","9-58-K-7427-01 (K-9 over Johnson Fork Creek) CD 1","","4","S","8","E","23","-96.4903936","39.6829393","  SW SW SE","5","40","74.9","NO"
"Kansas","1006461743","DOE RUN","unavailable","DR1-A ","","4","S","9","E","1","-96.3617174","39.73411","  SE SE NW","114","205","1500","YES"
"Kansas","1006461727","DOE RUN","unavailable","DR1 ","","4","S","9","E","1","-96.3664013","39.7359299","  NE SW NW","70","150.5","863.9","YES"
"Kansas","1025778555","KGS","unavailable","MIKE HEINEN 1","15-131-20166","4","S","12","E","3","-96.0609654","39.7376048","  S2 N2 N2","37","255","783.2","NO"
"Kansas","1002934609","Cities Service Oil and Gas Corp.","unavailable","Wessel 'A' 1","15-131-20071","4","S","13","E","24","-95.9070985","39.6883481","  NE NW SE","37","3476","3716","NO"
"Kansas","1002934572","Petro-Lewis Corp.","Petroleum Property Services, Inc.","Potts 1","15-131-20034","4","S","14","E","7","-95.885126","39.7130257","  NW SE SE","15","3456","3495.1","YES"
"Kansas","1002934579","Cities Service Co.","Petroleum Property Services, Inc.","Thieme 'A' 1","15-131-20041","4","S","14","E","18","-95.8837738","39.7029092","  NE NE SE","1","","0","NO"
"Kansas","1002934558","Pendleton Land and Exploration, Inc.","Petroleum Property Services, Inc.","McClain 'I' 1","15-131-20022","4","S","14","E","18","-95.8851139","39.7056546"," NE SW SE NE","51","3501","3620","YES"
"Kansas","1045120028","KDOT","unavailable","20-7 KA-2054-01 (K-20 over South Fork Wolf Creek) CD 4","","4","S","18","E","23","-95.3677333","39.6893158","    ","4","25.6","62.5","NO"
"Kansas","1045120027","KDOT","unavailable","20-7 KA-2054-01 (K-20 over South Fork Wolf Creek) CD 1","","4","S","18","E","23","-95.3677333","39.6893158","    ","1","23.3","32.5","NO"
"Kansas","1045107595","KDOT","unavailable","20-7 KA-2054-01 (K-20 over South Fork Wolf Creek) CD 2","","4","S","18","E","23","-95.3665729","39.6829504","  SW SW SE","4","24","57.7","NO"
"Kansas","1024022747","KDOT","unavailable","20-22 K-1885-01 K-20 N. Br. Independence Cr. CD 1","","4","S","19","E","10","-95.2737885","39.718338","    ","2","","0","NO"
"Kansas","1030455697","Evergreen Operating Corporation","Evergreen Operating Corporation","OAKLAND VALLEY 32-23","15-043-20046","4","S","20","E","23","-95.1414385","39.6911921"," SE NW SW NE","39","1010","1317","NO"
"Kansas","1030455701","Evergreen Operating Corporation","Heartland Oil & Gas, Inc.","OAKLAND VALLEY 32-23 WD","15-043-20048","4","S","20","E","23","-95.1414939","39.6914667"," SE NW SW NE","40","1317","1650","NO"
"Kansas","1002906993","MID GULF","Mid Gulf, Inc.","CAUDLE FARMS 1","15-043-20020","4","S","20","E","28","-95.1817738","39.6809199","  NE NE NW","1","410","3755","NO"
"Kansas","1006461992","WILSON EXPLORATION","unavailable","GILLMORE 3","","4","S","22","E","22","","","    ","2","","0","NO"
"Kansas","1006461991","WILSON EXPLORATION","unavailable","GILLMORE 5","","4","S","22","E","22","","","    ","3","","0","NO"
"Kansas","1006461990","WILSON EXPLORATION","unavailable","GILLMORE 4","","4","S","22","E","22","","","    ","3","","0","NO"
"Kansas","1002954612","Texaco USA","unavailable","Noel Poersch OZ-1","15-201-20005","5","S","5","E","31","-96.9164823","39.5675716","  SW SW SW","3","2764","2836","NO"
"Kansas","1002954613","Texaco USA","unavailable","Noel Poersch OZ-2","15-201-20006","5","S","5","E","31","-96.9128644","39.5727543","  NW NE SW","1","2704","8600","NO"
"Kansas","1002954610","Texaco, Inc.","unavailable","NOEL POERSCH 1","15-201-20003","5","S","5","E","31","-96.9162325","39.5675437","  S2 SW SW","51","2903","11296","NO"
"Kansas","1037026936","KGS","unavailable","Antioch Kimberlite ","","5","S","8","E","9","-96.5355455","39.6369258","   NW NW","29","21.9","298.3","NO"
"Kansas","1002934547","CITIES SERVICE CO","unavailable","GROSSNICKLE 'A' 1","15-131-20011","5","S","12","E","23","-96.0384887","39.6085681","  NE NW NE","4","2492","2516","NO"
"Kansas","1002934550","Cities Service Co.","unavailable","Steele Griffee 'A' 1","15-131-20014","5","S","12","E","25","-96.022007","39.5868769","  NW NW SE","18","2500","3465.5","NO"
"Kansas","1002934574","PENDLETON LAND & EXPL","unavailable","STEINLAGE 1","15-131-20036","5","S","12","E","27","-96.0536105","39.5895611","C   SE NE","1","875","2320","NO"
"Kansas","1002934582","PENDLETON LAND & EXPLORATION","Incline Reserves, Inc.","HERMESCH 1","15-131-20044","5","S","13","E","9","-95.9609563","39.6305203","  NW NE SE","1","2370","3800","NO"
"Kansas","1002934595","NEMAHA-RIST PARTNERSHIP","unavailable","WESLEY 2","15-131-20057","5","S","13","E","24","-95.9178785","39.6077843","    NW","3","3642","3655.7","NO"
"Kansas","1030215102","Evergreen Operating Corp.","Heartland Oil & Gas, Inc.","Liggatt 33-35","15-085-20066","5","S","16","E","35","-95.5896414","39.5711119","   NW SE","73","1669.6","2171","YES"
"Kansas","1046097102","KDOT","unavailable","159-003 K-5030-01 (US-159 over Grasshopper Ck) 1","","5","S","17","E","21","-95.5255525","39.5955941","  SW SW SW","3","","0","NO"
"Kansas","1031992738","KDOT","unavailable","9-3 K-4004-01 (K-9 over Deleware River) 1","","5","S","17","E","30","-95.5547255","39.5874708","C    ","6","","0","NO"
"Kansas","1037026585","KDOT","unavailable","9-3 K-4004-01 (K-9 over the Deleware River) 2","","5","S","17","E","30","-95.5547255","39.5874708","C    ","1","","0","NO"
"Kansas","1025822929","BTA Oil Producers","Heartland Oil & Gas, Inc.","20104 JV-P Lanter 1","15-005-20103","5","S","18","E","12","-95.3518573","39.6282713"," E2 SW NE SW","111","795","1843","NO"
"Kansas","1046096274","Kansas Geological Survey","unavailable","Construction Material Inventory CMI site 2C","","6","S","8","E","30","-96.581167","39.5013677"," SE SE SW NW","8","8.8","98.6","NO"
"Kansas","1046096276","Kansas Geological Survey","unavailable","Construction Material Inventory CMI site 17A","","6","S","9","E","3","-96.3887566","39.5554331"," SE SE NE SE","9","5.4","109.5","NO"
"Kansas","1025686066","El Paso Production Company","El Paso Production Company","FCB COREHOLE 4","15-085-20058","6","S","14","E","34","-95.8314502","39.4806567","  NE SE SE","262","84","2329","YES"
"Kansas","1037026790","KDOT","unavailable","75-43-K-3257-01 US 75 Over Straight Creek CD 1","","6","S","15","E","16","-95.7478675","39.5285378","    ","2","","0","NO"
"Kansas","1030215098","Evergreen Operating Corp.","Heartland Oil & Gas, Inc.","Brock 34-19","15-085-20064","6","S","16","E","19","-95.6708392","39.5081238","   SW SE","49","1729","2140","NO"
"Kansas","1025822925","BTA Oil Producers","Heartland Oil & Gas, Inc.","JV-P Hawk 20104","15-005-20101","6","S","18","E","5","-95.4335254","39.5611644","  NW SE NW","158","1113","1847","NO"
"Kansas","1006461407","KDOT","unavailable","9-3 K-2629-01 (K-9 over Stranger Creek) 1","","6","S","19","E","18","-95.3374863","39.528454","    ","4","","0","NO"
"Kansas","1044190024","KDOT","unavailable","59-3 K-8238-02 (US-59 over Missouri River) AW-8/CD 14","","6","S","21","E","6","-95.1152206","39.5584454","  SE SE NW","9","74.2","178.2","NO"
"Kansas","1044190022","KDOT","unavailable","59-3 K-8238-02 (US-59 over Missouri River) AW-14","","6","S","21","E","6","-95.1152206","39.5584454","  SE SE NW","4","77.4","113.4","NO"
"Kansas","1044190020","KDOT","unavailable","59-3 K-8238-02 (US-59 over Missouri River) AW-13","","6","S","21","E","6","-95.1152206","39.5584454","  SE SE NW","4","73.2","113.6","NO"
"Kansas","1044190017","KDOT","unavailable","59-3 K-8238-02 (US-59 over Missouri River) AW-12","","6","S","21","E","6","-95.1152206","39.5584454","  SE SE NW","4","72","113","NO"
"Kansas","1044190013","KDOT","unavailable","59-3 K-8238-02 (US-59 over Missouri River) AW-11","","6","S","21","E","6","-95.1152206","39.5584454","  SE SE NW","10","72","174.2","NO"
"Kansas","1002897986","EARL F. WAKEFIELD INC","unavailable","BERGIN 1","15-027-20027","7","S","2","E","36","-97.1576548","39.4041491","  NW SE NW","1","1510","2210","NO"
"Kansas","1002940946","Amoco Production Co.","unavailable","Eldon Hargrave 1","15-161-20027","7","S","6","E","32","-96.7743479","39.4069383"," NE NE NE NE","85","4","782","YES"
"Kansas","1046096278","Kansas Geological Survey","unavailable","Construction Material Inventory CMI site 31","","7","S","10","E","24","-96.2479799","39.4238883"," NW NW SW SE","8","10.1","89","NO"
"Kansas","1024021572","KDOT","unavailable","16-75 K-5654-01 K-16 Over Vermillion Creek CD 1","","7","S","11","E","1","-96.132284","39.4751818","    NE","3","","0","NO"
"Kansas","1037026791","KDOT","unavailable","4-99 K-6381-01 K-16 Over Soldier Creek CD 2","","7","S","13","E","10","-95.9514883","39.4561158","    ","5","","0","NO"
"Kansas","1030215094","Evergreen Operating Corp.","Heartland Oil & Gas, Inc.","Kathrens 31-5","15-085-20062","7","S","16","E","5","-95.652239","39.4755719","  NW NW NE","202","1330","2080","YES"
"Kansas","1046097951","KDOT","unavailable","116-3 K-5081-02 (K-116 over Coal Creek) CD 1","","7","S","17","E","24","-95.4691678","39.4243756","C    S2","4","","0","NO"
"Kansas","1002885191","WMA Corporation","W.M.A. Corporation","Wheeler 1-6","15-005-20086","7","S","19","E","6","-95.332244","39.4661727","  NW SE SE","21","1635","1725","NO"
"Kansas","1030614463","Evergreen Operating Corp.","Heartland Oil & Gas, Inc.","Emzen 43-11","15-005-20117","7","S","20","E","11","-95.1445168","39.4538432"," SE NW NE SE","80","1015.6","1640","NO"
"Kansas","1025822927","BTA Oil Producers","Heartland Oil & Gas, Inc.","20104 JV-P Boldridge 1","15-005-20102","7","S","21","E","5","-95.0910545","39.4706597"," NE SE SW NE","101","140.1","1512","NO"
"Kansas","1006460984","KANSAS GEOLOGICAL SURVEY","unavailable","KIMBERLITE 75-1","","8","S","5","E","22","-96.8608954","39.3444432","   SE NW","4","15","213","NO"
"Kansas","1037027112","KGS","unavailable","Baldwin Creek (BC) ","","8","S","6","E","3","-96.7381432","39.3786246"," SE SE SE SE","29","24.9","298.4","NO"
"Kansas","1037027113","KGS","unavailable","Tuttle Kimberlite ","","8","S","6","E","22","-96.7504141","39.3483883","  NW NE NW","23","60","307.6","NO"
"Kansas","1046096272","Kansas Geological Survey","unavailable","Construction Material Inventory CMI site 12","","8","S","8","E","6","-96.5677037","39.3828068"," NW SE NW SE","8","6.1","99","NO"
"Kansas","1002937898","PAN AMERICAN PETROLEUM CORP","unavailable","A. J. LAUER 1","15-149-19013","8","S","8","E","26","-96.4972496","39.331688","  SE NW NW","1","1466","1471","NO"
"Kansas","1032413175","KDOT","unavailable","99-75 K-6421 K-99 over Rock Creek at Westmoreland CD 1","","8","S","9","E","4","-96.4168395","39.384659","    ","6","","0","NO"
"Kansas","1002937881","PENDLETON LAND & EXPL","unavailable","BALLENTINE 1","15-149-20043","8","S","11","E","4","-96.1904023","39.3892886","   NW NE","1","2450","2530","NO"
"Kansas","1032413171","KDOT","unavailable","192-44 K-6824-01 K-192 over Crooked Creek CD 1","","8","S","19","E","28","-95.305685","39.3291694","    NW","4","","0","NO"
"Kansas","1002928433","Tom Holden and Harold Kottwitz","unavailable","Collins 1","15-103-19002","8","S","20","E","25","-95.1389823","39.3274859","  NE SW NW","1","1553","1556","NO"
"Kansas","1026645551","Electrothermic Production Co.","unavailable","Collins 1","15-103-20008","8","S","20","E","25","-95.1413418","39.3293055","  SW NW NW","6","1493","1515","NO"
"Kansas","1002928441","HOLDEN TOM","unavailable","GRAY 1","15-103-30061","8","S","20","E","25","-95.1413151","39.3238582","  NW NW SW","1","1048","1337","NO"
"Kansas","1046095495","KDOT","unavailable","192-44 K-0024-01 (K-192 over Indian Creek) CD 1","","8","S","20","E","29","-95.2159575","39.3203984","  NW SW SW","3","23.7","53","NO"
"Kansas","1002928403","Remco Energy Corp.","Running Foxes Petroleum Inc.","R. W. Holland 3","15-103-21229","8","S","21","E","13","-95.0170142","39.3562587","  NE SW NE","12","1264","1302","NO"
"Kansas","1002928390","Edmiston Oil Co., Inc.","Edmiston Oil Company, Inc.","Heintzelman 3","15-103-21195","8","S","21","E","17","-95.0941519","39.3490868","  NW SW SE","5","","0","NO"
"Kansas","1002928401","Edmiston Oil Co., Inc.","Edmiston Oil Company, Inc.","Hick-Olmstead 4","15-103-21225","8","S","21","E","20","-95.0988761","39.3355042","  W2 E2 SW","1","1720","1790","NO"
"Kansas","1002928413","Edmiston Oil Co., Inc.","Edmiston Oil Company, Inc.","Kroll 6","15-103-21242","8","S","21","E","20","-95.0942177","39.3345756","  NW SW SE","6","","0","NO"
"Kansas","1002927646","Jennings Drilling Co.","Daystar Petroleum, Inc.","MASSMAN 'B' UNIT was HEINTZELMAN-MILLER  2 H-M 2","15-103-20214","8","S","21","E","23","-95.0310338","39.3409056","  NE SE NE","2","1350","1366.5","NO"
"Kansas","1006461418","KDOT","unavailable","73-52 K-1875-01 CD 1","","8","S","22","E","17","-94.9781551","39.3499814","    SE","2","","0","NO"
"Kansas","1037026812","KDOT","unavailable","73-52 K-4246-01 US-73 over Salt Creek CD 1","","8","S","22","E","28","-94.9644168","39.3246078","C    ","4","","0","NO"
"Kansas","1050385896","Kansas Geological Survey","unavailable","Bala Kimberlite  1","","9","S","5","E","6","-96.9142533","39.2993888","    ","7","17","181","NO"
"Kansas","1051302658","Kansas Geological Survey","unavailable","Bala Kimberlite Hole 2","","9","S","5","E","6","-96.9142533","39.2993888","    ","3","17","20","NO"
"Kansas","1006461439","KDOT","unavailable","24-75 K-2603-01 21.54","","9","S","11","E","34","-96.1680623","39.2187373","   SE SE","2","","0","NO"
"Kansas","1006461440","KDOT","unavailable","24-75-2603-01 23.68","","9","S","12","E","31","-96.126056","39.2185863","   SW SW","4","","0","NO"
"Kansas","1037026793","KDOT","unavailable","92-44 K-4371-01 Bridge 11.04 CD 2","","9","S","18","E","35","-95.37553","39.223118","    ","3","","0","NO"
"Kansas","1002922915","Jerry Lutz","unavailable","Subelka 1","15-087-20146","9","S","19","E","25","-95.2533748","39.2352191","  SW NW SW","10","1538.3","1651.5","NO"
"Kansas","1002922900","Jerry Lutz","unavailable","Delbert Brunk 4","15-087-20125","9","S","19","E","25","-95.2534419","39.2442783","  NW NW NW","7","","0","NO"
"Kansas","1002922904","LUTZ, JERRY","unavailable","BOLLINGER 3","15-087-20132","9","S","19","E","25","-95.253348","39.2315954","  SW SW SW","4","1565","1592","NO"
"Kansas","1037026792","KDOT","unavailable","92-44 K-4371-01 Bridge 11.04 CD 1","","9","S","19","E","31","-95.3385013","39.2231523","    ","4","","0","NO"
"Kansas","1032413172","KDOT","unavailable","92-44 K-7381-01 K-92 over Prairie Creek CD 1","","9","S","20","E","20","-95.2081033","39.2526245","    ","4","","0","NO"
"Kansas","1006461420","KDOT","unavailable","92-52 K-2657-01 K-92 Over Stranger Creek CD 1","","9","S","21","E","8","-95.09128","39.2811909","C    E2","3","","0","NO"
"Kansas","1002928419","Kansas Geological Survey","unavailable","Edmonds 'A' 1","15-103-21250","9","S","22","E","35","-94.9333987","39.21969","  SE NW SW","118","693.5","1208.5","NO"
"Kansas","1002928412","Kansas Geological Survey","unavailable","Edmonds 1","15-103-21241","9","S","22","E","35","-94.9333996","39.2196351","  SE NW SW","92","43.5","886.6","NO"
"Kansas","1046824312","United States Army","unavailable","Impact Zone IZ-92-4","","10","S","6","E","7","-96.8028183","39.1971055","    ","1","103","120","NO"
"Kansas","1046823963","United States Army","unavailable","Impact Zone IZ-92-2","","10","S","6","E","18","-96.8027498","39.1826018","    ","1","37","54","NO"
"Kansas","1046823964","United States Army","unavailable","Open Burn/Open Detonation Ground OBOD-12-19D","","10","S","6","E","33","-96.7619223","39.1416905","  NE SW NE","2","14.6","34.6","NO"
"Kansas","1046824318","United States Army","unavailable","Open Burn/Open Detonation Ground OBOD-97-13PZ","","10","S","6","E","33","-96.7619223","39.1416905","  NE SW NE","1","17.5","26.5","NO"
"Kansas","1037027114","KDOT","unavailable","113-81 K-4438-01 Bridge 2.55 ","","10","S","7","E","10","-96.63525","39.1963845","    ","3","","0","NO"
"Kansas","1006461438","KDOT","unavailable","24-75 K-0671-01 US-24 Over Big Blue River CD 1","","10","S","8","E","9","-96.5360082","39.1912552","   SW SW","5","","0","NO"
"Kansas","1037027139","KDOT","unavailable","24-89 K-3602-01 (US-24 over Cross Creek) CD 1","","10","S","13","E","34","-95.9553469","39.1378878","  SW SE NW","2","","0","NO"
"Kansas","1037027142","KDOT","unavailable","75-89 K-668-01 (US-75 over 46th St) Core 1","","10","S","15","E","35","-95.7189515","39.129877"," SW SW SW SW","5","","0","NO"
"Kansas","1045401664","KDOT","unavailable","73-105 KA-2092-01 (SB US-73 over Piper Creek) CD 3","","10","S","23","E","31","-94.8997495","39.1404036","  SW NW NW","4","24.4","58","NO"
"Kansas","1045140453","KDOT","unavailable","73-105 KA-2092-01 (SB US-73 over Piper Creek) CD 1","","10","S","23","E","31","-94.8997495","39.1404036","  SW NW NW","5","5.7","52.5","NO"
"Kansas","1045383744","KDOT","unavailable","73-105 KA-2092-01 (SB US-73 over Piper Creek) CD 2","","10","S","23","E","31","-94.8997495","39.1404036","  SW NW NW","2","24","43","NO"
"Kansas","1032413168","KDOT","unavailable","77-31 K-5373-01 US-77 over Republican River CD 2","","11","S","5","E","27","-96.8602943","39.0663538","    ","3","","0","NO"
"Kansas","1032413167","KDOT","unavailable","77-31 K-5373-01 US-77 over Republican River CD 1","","11","S","5","E","28","-96.8788033","39.066452","    ","5","","0","NO"
"Kansas","1046824322","United States Army","unavailable","Custer Hill Landfill CH-03-18B","","11","S","6","E","5","-96.788727","39.1176487","  SW SE SW","6","20","74.9","NO"
"Kansas","1046824319","United States Army","unavailable","Custer Hill Landfill CH-99-11","","11","S","6","E","5","-96.7841257","39.1232773","  NW NW SE","4","39.3","72.3","NO"
"Kansas","1037026764","KDOT","unavailable","70-31 K-5086-01 I-70 over McDowell Creek Eastbound CD 1","","11","S","6","E","26","-96.733757","39.065876","    ","3","","0","NO"
"Kansas","1046823967","United States Army","unavailable","Dry Cleaning Facilities Area DCFA-93-19","","11","S","6","E","29","","","    ","4","8.2","60","NO"
"Kansas","1046823966","United States Army","unavailable","Dry Cleaning Facilities Area DCFA-92-1","","11","S","6","E","29","","","    ","1","28.6","45.6","NO"
"Kansas","1046823968","United States Army","unavailable","Dry Cleaning Facilities Area DCFA-93-20","","11","S","6","E","29","","","    ","3","9.1","64","NO"
"Kansas","1046824326","","unavailable","Dry Cleaning Facilities Area DCFA-93-18","","11","S","6","E","29","","","    ","9","8.5","140.6","NO"
"Kansas","1037026762","KDOT","unavailable","70-31 K-5086-01 K-18 over I-70 CD 1","","11","S","6","E","35","-96.7336538","39.051361","    ","1","","0","NO"
"Kansas","1037026763","KDOT","unavailable","70-31 K-5086-01 I-70 over McDowell Branch CD 2","","11","S","7","E","26","-96.6234283","39.0659793","    ","3","","0","NO"
"Kansas","1037026760","KDOT","unavailable","70-31 K-5086-01 I-70 Over Clarks Creek Eastbound CD 1","","11","S","7","E","27","-96.6418458","39.0659298","    ","3","","0","NO"
"Kansas","1027808457","Cities Service Oil Co.","unavailable","Gehrt 2","15-161-19031","11","S","8","E","25","-96.4787842","39.0678877","  NE SW NW","3","1527","1627","NO"
"Kansas","1002940913","CITIES SERVICE OIL CO.","Vess Oil Corporation","GEHRT 3","15-161-19034","11","S","8","E","25","-96.471869","39.0661312","  SW SW NE","1","1650","1654","NO"
"Kansas","1005693557","Cities Service Oil Co.","unavailable","Gehrt 1","","11","S","8","E","25","-96.4764961","39.0660799","  SW SE NW","2","1604","1638","NO"
"Kansas","1027808459","CITIES SERVICE OIL CO.","Thunderbird Drilling, Inc.","YAEGE 9","15-161-19032","11","S","8","E","25","-96.467429","39.0588662","  SW SE SE","1","1613","1648","NO"
"Kansas","1027808475","CITIES SERVICE OIL CO.","Vess Oil Corporation","YAEGE 6","15-161-19040","11","S","8","E","25","-96.4763083","39.0624791","  SW NE SW","3","1683","1705","NO"
"Kansas","1027808473","Cities Service Oil Co.","OXY USA Inc.","Yaege 5","15-161-19039","11","S","8","E","25","-96.4742961","39.060604","  NE SE SW","1","1631","1700","NO"
"Kansas","1027808479","Cities Service Oil Co.","Vess Oil Corporation","Yaege 8","15-161-19042","11","S","8","E","25","-96.47875","39.0642893","  NE NW SW","1","1640","1678","NO"
"Kansas","1027808477","CITIES SERVICE OIL CO.","Vess Oil Corporation","YAEGE 7","15-161-19041","11","S","8","E","25","-96.4719706","39.0588173","  SW SW SE","4","1665","1696","NO"
"Kansas","1027808465","Cities Service Oil Co.","OXY USA Inc.","Gehrt 4","15-161-19035","11","S","8","E","25","-96.4812725","39.065964","  SW SW NW","2","1574","1634","NO"
"Kansas","1027808493","CITIES SERVICE OIL CO.","unavailable","GREEN 'E' 1","15-161-19049","11","S","8","E","26","-96.4997063","39.0591026","  SW SW SW","1","1621","1659","NO"
"Kansas","1024021817","HENTON","unavailable","KOEPSEL ","","11","S","8","E","36","-96.473114","39.0506973","    ","1","","0","NO"
"Kansas","1027808497","CITIES SERVICE OIL CO.","Vess Oil Corporation","KOEPSEL 1","15-161-19051","11","S","8","E","36","-96.469645","39.0570306","  NE NW NE","1","1671","1695","NO"
"Kansas","1027938445","CITIES SERVICE OIL CO.","OXY USA Inc.","KOEPSEL 2","15-161-19052","11","S","8","E","36","-96.4742902","39.0570859","  NE NE NW","1","1764","1794","NO"
"Kansas","1027938449","CITIES SERVICE OIL CO.","Thunderbird Drilling, Inc.","KOEPSEL 4","15-161-19054","11","S","8","E","36","-96.4649956","39.0552512","  SW NE NE","1","","0","NO"
"Kansas","1027938447","CITIES SERVICE OIL CO.","Vess Oil Corporation","KOEPSEL 3","15-161-19053","11","S","8","E","36","-96.4649978","39.0570806","  NE NE NE","1","","0","NO"
"Kansas","1022241647","KDOT","unavailable","KDOT I-70 OVER PRETTY CREEK ","","11","S","10","E","26","-96.2698595","39.065571","    ","3","","0","NO"
"Kansas","1024021570","KDOT","unavailable","KDOT I-70 OVER Side Road 1","","11","S","11","E","27","-96.1731986","39.0620077","    SE","4","","0","NO"
"Kansas","1024021563","KDOT","unavailable","KDOT I-70 OVER Side Road 2","","11","S","11","E","27","-96.1731986","39.0620077","    SE","1","","0","NO"
"Kansas","1024021566","KDOT","unavailable","KDOT I-70 OVER K-138 @ Paxico 1","","11","S","11","E","28","-96.1964148","39.0655405","    ","2","","0","NO"
"Kansas","1022241648","KDOT","unavailable","KDOT E.B. I-70 OVER SPRING CREEK ","","11","S","11","E","28","-96.1964148","39.0655405","    ","3","","0","NO"
"Kansas","1022241644","KDOT","unavailable","KDOT E.B.I-70 OVER SNOKOMO CRK ","","11","S","11","E","36","-96.1487829","39.0574076","  NW NW NW","5","","0","NO"
"Kansas","1024021562","KDOT","unavailable","KDOT I-70 OVER Vera Road 1","","11","S","12","E","29","-96.0995113","39.0623007","    SE","6","","0","NO"
"Kansas","1032413180","KDOT","unavailable","I-70 over Keene Road ","","11","S","12","E","36","-96.0298883","39.051628","    ","3","","0","NO"
"Kansas","1031900276","KDOT","unavailable","70-99 K-6357-01 KDOT ","","11","S","12","E","36","-96.0298883","39.051628","    ","3","","0","NO"
"Kansas","1031900275","KDOT","unavailable","70-99 K-6357-01 Bridge 70-99-19.79 70-99-19.80","","11","S","12","E","36","-96.0298883","39.051628","    ","4","","0","NO"
"Kansas","1031900274","KDOT","unavailable","70-89 K-6358-01 (I-70 over West Union Road) CD 2","","11","S","13","E","25","-95.9185434","39.0591641","C  S2 S2 S2","3","","0","NO"
"Kansas","1032413176","KDOT","unavailable","70-89 K-6358-01 (I-70 over West Union Road) CD 1","","11","S","13","E","25","-95.9185434","39.0591641","C  S2 S2 S2","4","","0","NO"
"Kansas","1032413177","KDOT","unavailable","70-89 K-6358-01 (I-70 over Rossville Rd (RS 315)) CD 1","","11","S","13","E","35","-95.9453739","39.0573981","  NW NW NW","7","","0","NO"
"Kansas","1032413179","KDOT","unavailable","70-89 K-6358-01 (I-70 over Rossville Rd) CD 2","","11","S","13","E","35","-95.9453739","39.0573981","  NW NW NW","6","","0","NO"
"Kansas","1045112473","KDOT","unavailable","24-89 KA-0711-01 (US-24 over Ensign Creek) CD 1","","11","S","14","E","6","-95.9036268","39.1169746","  SW SE SW","3","68.8","92.8","NO"
"Kansas","1045120023","KDOT","unavailable","24-89 KA-0711-01 (US-24 over Ensign Creek) CD 3","","11","S","14","E","6","-95.9036268","39.1169746","  SW SE SW","1","69.5","72.5","NO"
"Kansas","1045112475","KDOT","unavailable","24-89 KA-0711-01 (US-24 over Ensign Creek) CD 2","","11","S","14","E","6","-95.9036268","39.1169746","  SW SE SW","2","69.5","93.6","NO"
"Kansas","1032413178","KDOT","unavailable","70-89 K-6358-01 (I-70 over Frontage Rd) CD 1","","11","S","14","E","32","-95.8741292","39.0562182","   NE NE","3","","0","NO"
"Kansas","1006461473","KDOT","unavailable","70-89 K-2589-01 (Blacksmith Creek) CD 1","","11","S","14","E","34","-95.8441925","39.0542165","C    N2","6","","0","NO"
"Kansas","1024021564","KDOT","unavailable","75-89 K-6681-01 (US-75 over 35th Street) CD 1","","11","S","15","E","11","-95.7198116","39.1128551","    NW","2","","0","NO"
"Kansas","1045114688","KDOT","unavailable","24-89 K-7431-01 (US-24 over UP Railroad) CD 2","","11","S","15","E","16","-95.7491474","39.0918877","  SE NW SE","3","63","88","NO"
"Kansas","1045120025","KDOT","unavailable","24-89 K-7431-01 (EB and WB US-24 over Menoken Rd) CD 2","","11","S","15","E","16","-95.7526285","39.0945203","    ","2","69.5","87","NO"
"Kansas","1045112472","KDOT","unavailable","24-89 K-7431-01 (EB and WB US-24 over Menoken Rd) CD 3","","11","S","15","E","16","-95.7491474","39.0918877","  SE NW SE","3","68.8","98.7","NO"
"Kansas","1045114686","KDOT","unavailable","24-89 K-7431-01 (US-24 over UP Railroad) CD 1","","11","S","15","E","16","-95.7492864","39.0991061","  SE NW NE","3","61","88","NO"
"Kansas","1045114690","KDOT","unavailable","24-89 K-7431-01 (US-24 over UP Railroad) CD 3","","11","S","15","E","16","-95.7491474","39.0918877","  SE NW SE","3","61.7","88","NO"
"Kansas","1045114692","KDOT","unavailable","24-89 K-7431-01 (US-24 over UP Railroad) CD 4","","11","S","15","E","16","-95.7491474","39.0918877","  SE NW SE","3","62.8","93","NO"
"Kansas","1006461462","KDOT","unavailable","70-89 K-2446-01 (I-70 over MacVicar Ave) CD 1 A","","11","S","15","E","26","-95.7070775","39.0707424","  SE NE NE","2","","0","NO"
"Kansas","1024021560","KDOT","unavailable","75-89 K-5666-01 (N.B. US-75 over KS. River) CD 1","","11","S","15","E","27","-95.7289759","39.069524","    NE","5","","0","NO"
"Kansas","1024021567","KDOT","unavailable","75-89 K-5666-01 (N.B. US-75 over KS. River) CD 2","","11","S","15","E","27","-95.7289759","39.069524","    NE","12","","0","NO"
"Kansas","1006461474","KDOT","unavailable","70-89 K-2446-01 (I-70 over Gage Blvd.) CD 1 A","","11","S","15","E","27","-95.7336538","39.065777","    C","3","","0","NO"
"Kansas","1006461459","KDOT","unavailable","K-2446-01 (Fairlawn Rd over I-70) CD 1 A","","11","S","15","E","28","-95.7434924","39.0601172"," E2 E2 SE SE","3","","0","NO"
"Kansas","1045140479","KDOT","unavailable","24-89 KA-0461-01 (US-24 over Topeka Blvd) CD 1","","11","S","16","E","17","-95.6644278","39.0913285","    SW","3","46.7","72.7","NO"
"Kansas","1035024018","KGS","unavailable","KDOT Limestone Project D36A","","11","S","18","E","32","-95.4456996","39.0445831","  SW SW SW","3","10.75","39.8","NO"
"Kansas","1006461415","KDOT","unavailable","59-44 K-0403-01 5.84","","11","S","19","E","17","-95.3264123","39.0945933","    ","2","","0","NO"
"Kansas","1006461414","KDOT","unavailable","24-044 K-2844-01 Buck Creek CD 1","","11","S","19","E","34","-95.288601","39.0512845","    ","3","","0","NO"
"Kansas","1037026815","KDOT","unavailable","24-52 K-4441-01 24 Highway over FAS 381 CD 1","","11","S","21","E","4","-95.0839005","39.1226843","    ","4","","0","NO"
"Kansas","1037026814","KDOT","unavailable","24 Highway over Tonganoxie Creek ","","11","S","21","E","4","-95.0839005","39.1226843","    ","3","","0","NO"
"Kansas","1006461419","KDOT","unavailable","24-52 K-4441-01 US-24 Over Stranger Creek CD 2","","11","S","22","E","3","-94.9616846","39.1177864","   SW SW","4","","0","NO"
"Kansas","1037026813","KDOT","unavailable","Highway 24 over Stranger Creek ","","11","S","22","E","7","-95.0098763","39.1090965","    ","3","","0","NO"
"Kansas","1026645641","JENNINGS DRILLING COMPANY","unavailable","HARING 1","15-103-20060","11","S","22","E","19","-95.0022642","39.082825","  NE SE NE","8","630","696","NO"
"Kansas","1045401662","KDOT","unavailable","24-105 K-8248-01 (K-7 over US-24) CD 1","","11","S","23","E","6","-94.8940533","39.11679","  SW SE SE","4","4.5","42.8","NO"
"Kansas","1006462314","Kansas Geological Survey","unavailable","BEATY DISSERTATION T132P046","","11","S","23","E","8","-94.8873068","39.1115121","  NE SW NW","4","","0","NO"
"Kansas","1006462324","Kansas Geological Survey","unavailable","BEATY DISSERTATION T104P078","","11","S","23","E","8","-94.8873068","39.1115121","  NE SW NW","4","","0","NO"
"Kansas","1006462310","Kansas Geological Survey","unavailable","BEATY DISSERTATION T076P046","","11","S","23","E","8","-94.8873068","39.1115121","  NE SW NW","4","","0","NO"
"Kansas","1006462317","Kansas Geological Survey","unavailable","BEATY DISSERTATION T104P030","","11","S","23","E","8","-94.8873068","39.1115121","  NE SW NW","4","","0","NO"
"Kansas","1006462322","Kansas Geological Survey","unavailable","BEATY DISSERTATION T104P062","","11","S","23","E","8","-94.8873068","39.1115121","  NE SW NW","5","","0","NO"
"Kansas","1006462315","Kansas Geological Survey","unavailable","BEATY DISSERTATION T104P014","","11","S","23","E","8","-94.8873068","39.1115121","  NE SW NW","5","","0","NO"
"Kansas","1006462308","Kansas Geological Survey","unavailable","BEATY DISSERTATION T076P014","","11","S","23","E","8","-94.8873068","39.1115121","  NE SW NW","4","","0","NO"
"Kansas","1006462325","Kansas Geological Survey","unavailable","BEATY DISSERTATION T104P094","","11","S","23","E","8","-94.8873068","39.1115121","  NE SW NW","4","","0","NO"
"Kansas","1046095480","KDOT","unavailable","70-105 KA-1003-01 (118th over I-70) CD 1","","11","S","23","E","10","-94.8523788","39.102873","  SW SW SW","4","7.1","57","NO"
"Kansas","1046095478","KDOT","unavailable","70-105 KA-1003-01 (118th over I-70) CD 2","","11","S","23","E","10","-94.8523788","39.102873","  SW SW SW","4","5.6","52.8","NO"
"Kansas","1046095484","KDOT","unavailable","70-105 KA-1003-01 (Riverview over I-70) CD 1","","11","S","23","E","16","-94.8640844","39.1009049","  NE NE NW","4","21","63","NO"
"Kansas","1046095476","KDOT","unavailable","70-105 KA-1003-01 (Riverview over I-70) CD 2","","11","S","23","E","16","-94.8640844","39.1009049","  NE NE NW","4","4.6","44","NO"
"Kansas","1006462338","unknown","unavailable","McKIRAHAN THESIS 3","","11","S","23","E","24","-94.8033334","39.0866233","  NE NW NE","7","","0","NO"
"Kansas","1032413182","KDOT","unavailable","Ramp T-8 over SB I-635 ","","11","S","25","E","7","-94.6771165","39.1095505","    ","6","","0","NO"
"Kansas","1045114696","KDOT","unavailable","169-105 K-7449-01 (US-169 over UPRR and KCT RW) CD 6","","11","S","25","E","15","-94.6257811","39.0912318","    SW","4","59.5","98","NO"
"Kansas","1045114694","KDOT","unavailable","169-105 K-7449-01 (US-169 over UPRR and KCT RW) CD 5","","11","S","25","E","15","-94.6257811","39.0912318","    SW","5","36.5","77.3","NO"
"Kansas","1006461431","KDOT","unavailable","169-105 K-2878-01 (US-169 over Kansas River) CD 1 A","","11","S","25","E","22","-94.6257794","39.0767886","    SW","12","6.6","28","NO"
"Kansas","1046085166","KDOT","unavailable","635-105 KA-2093-01 (Gibbs Rd over I-635) CD 02","","11","S","25","E","30","-94.6781075","39.0595333","  SE SE SW","8","5","97.3","NO"
"Kansas","1045636143","KDOT","unavailable","635-105 KA-2093-01 (Gibbs Rd over I-635) CD 03","","11","S","25","E","30","-94.6781075","39.0595333","  SE SE SW","8","6.4","81","NO"
"Kansas","1045384644","KDOT","unavailable","635-105 KA-2093-01 (Gibbs Rd over I-635) CD 05","","11","S","25","E","30","-94.6781075","39.0595333","  SE SE SW","4","12.5","53","NO"
"Kansas","1045384642","KDOT","unavailable","635-105 KA-2093-01 (Gibbs Rd over I-635) CD 01","","11","S","25","E","30","-94.6781075","39.0595333","  SE SE SW","8","3.8","80.9","NO"
"Kansas","1045384646","KDOT","unavailable","635-105 KA-2093-01 (Gibbs Rd over I-635) CD 06","","11","S","25","E","30","-94.6781075","39.0595333","  SE SE SW","6","10.7","81.2","NO"
"Kansas","1045364642","KDOT","unavailable","635-105 KA-2093-01 (Gibbs Rd over I-635) CD 04","","11","S","25","E","30","-94.6781075","39.0595333","  SE SE SW","2","9.1","21","NO"
"Kansas","1006461433","KDOT","unavailable","35-101 K-2701-02 0.82","","11","S","25","E","33","-94.6443148","39.0477341","    SW","2","","0","NO"
"Kansas","1032413181","KDOT","unavailable","Br. No. 635-105-04.22(156) ","","11","S","25","E","","","","    ","2","","0","NO"
"Kansas","1037026667","KDOT","unavailable","18-21 K-4374-01 CD 1","","12","S","1","E","1","-97.2688333","39.0387078","    ","2","","0","NO"
"Kansas","1006461411","KDOT","unavailable","70-31 K-2611-02 I-70 Over U.P PR CD 6","","12","S","5","E","13","-96.8301966","39.0115788","    NW","4","","0","NO"
"Kansas","1037026761","KDOT","unavailable","77-31 K-2358-01 US-77 over Smoky Hill River CD 1","","12","S","5","E","27","-96.86261","38.9791105","    ","4","","0","NO"
"Kansas","1006461412","KDOT","unavailable","70-31 K-2611-02 WB I-70 over Smokey Hill River CD 5","","12","S","6","E","7","-96.8028421","39.026062","    NE","14","","0","NO"
"Kansas","1022241642","KDOT","unavailable","57-31 K-5657-01 K-57 over Clarks Creek CD 2","","12","S","6","E","17","-96.7937335","39.0078045","    W2","6","","0","NO"
"Kansas","1006461469","KDOT","unavailable","4-89-K-0828-01 (Mission Creek) CD 1","","12","S","13","E","26","-95.9303741","38.973471","   SE SE","1","","0","NO"
"Kansas","1006461425","KDOT","unavailable","4-99 K-2625-01 36.63","","12","S","13","E","31","-96.0159358","38.9608962","    SW","2","","0","NO"
"Kansas","1006461468","KDOT","unavailable","K-0827-01 (K-4 over Mission Creek) CD 1","","12","S","13","E","35","-95.9385385","38.9639775"," N2 NE NE SW","1","","0","NO"
"Kansas","1046095486","KDOT","unavailable","4-89 KA-89-01 (K-4 over Blacksmith Creek) CD 1","","12","S","14","E","10","-95.8383181","39.0207901","  NW NE SE","4",".8","47.9","NO"
"Kansas","1046095488","KDOT","unavailable","4-89 KA-89-01 (K-4 over Blacksmith Creek) CD 2","","12","S","14","E","10","-95.8383181","39.0207901","  NW NE SE","4","24.4","53","NO"
"Kansas","1006461463","KDOT","unavailable","470-89 K-3831-01 (I-470 over Wanamaker Road) CD 2 A","","12","S","15","E","5","-95.7638238","39.0418935","   NE NE","2","","0","NO"
"Kansas","1006461461","KDOT","unavailable","470-89 K-4470-02 (Burlingame Road over I-470) CD 1 B","","12","S","15","E","24","-95.7037713","38.9987538","   NW NW","2","","0","NO"
"Kansas","1037027141","KDOT","unavailable","NB I-335 over I-70 Abut 2 ","","12","S","15","E","24","-95.6967775","38.993332","    ","5","","0","NO"
"Kansas","1006461475","KDOT","unavailable","40-89 K-2386-01 (Stinson Creek Bridge Replacement) CD 1","","12","S","16","E","1","-95.5923346","39.0425189","   NW NW","1","","0","NO"
"Kansas","1037027138","KDOT","unavailable","004-089 K-6252-01 (Tecumseh Rd/EB I-70, EB I-470) 1","","12","S","16","E","1","-95.5854833","39.037033"," C S2 S2 S2","5","","0","NO"
"Kansas","1022241640","KDOT","unavailable","K-6252-01 (SB I-335 Over EB K-4 and I-70, Pier 1) 1","","12","S","16","E","2","-95.6100861","39.0342787","  SE NW SW","4","","0","NO"
"Kansas","1022241636","KDOT","unavailable","K-6252-01 (SB I-335 over EB K-4 and I-70) Pier 1 CD 2","","12","S","16","E","2","-95.6100442","39.0356514"," S2 NE NW SW","5","","0","NO"
"Kansas","1037027140","KDOT","unavailable","004-089 K-6252-01 (EB K-4 over I-70 at Abut 1) 1","","12","S","16","E","2","-95.6094872","39.0347358"," NE SE NW SW","5","","0","NO"
"Kansas","1022241651","KDOT","unavailable","K-6252-01 (Croco Rd over I-70) CD 2","","12","S","16","E","2","-95.6130252","39.033824"," SW SW NW SW","13","","0","NO"
"Kansas","1006461472","KDOT","unavailable","4-89 K-3362-03 (Ramp B) 1","","12","S","16","E","3","-95.6276208","39.0333187","    SW","8","","0","NO"
"Kansas","1006461470","KDOT","unavailable","K-3362-03 (Rice Rd Over K-4) 1","","12","S","16","E","3","-95.6229248","39.034249","C  S2 N2 S2","6","","0","NO"
"Kansas","1006461471","KDOT","unavailable","4-89 K-3362-03 (Ramp C over I-70 and Ramp B) 1","","12","S","16","E","3","-95.6276208","39.0333187","    SW","8","","0","NO"
"Kansas","1046247482","KDOT","unavailable","70-89 KA-2107-01 (I-70 and Deer Creek) CD 1","","12","S","16","E","4","-95.6357275","39.0342384","  SW NE SE","3","33.5","62.4","NO"
"Kansas","1046247481","KDOT","unavailable","70-89 KA-2107-01 (I-70 and Deer Creek) CD 2","","12","S","16","E","4","-95.6357275","39.0342384","  SW NE SE","3","33.3","66","NO"
"Kansas","1006461465","KDOT","unavailable","40-89 K-2387-01 (Tecumseh Creek) CD 1","","12","S","17","E","6","-95.5737106","39.0424992","   NW NW","1","","0","NO"
"Kansas","1002907035","U.S. Geological Survey and Kansas Geological Survey","unavailable","Douglas County Livestock and Fair Assoc. 1","15-045-20122","12","S","17","E","13","-95.4789921","39.0121087","  SE NW NW","3","2420","2437","NO"
"Kansas","1035181425","KGS","unavailable","KDOT Limestone Project D-20","","12","S","17","E","14","-95.4904682","39.0066959","  NW NW SE","2","7.3","28.8","NO"
"Kansas","1035181419","KGS","unavailable","KDOT Limestone Project D-18","","12","S","17","E","24","-95.4810034","38.9884802","  NW SW SW","3","8","39.8","NO"
"Kansas","1035181446","KGS","unavailable","KDOT Limestone Project D-33","","12","S","18","E","17","-95.436501","39.0066806","  NW NW SE","4","6.3","49.9","NO"
"Kansas","1006461374","KANSAS GEOLOGICAL SURVEY","unavailable","MOORE CORE 1","","12","S","19","E","2","-95.2630535","39.0350392","   NE SE","56","12.3","507.3","NO"
"Kansas","1006462326","KANSAS GEOLOGICAL SURVEY","unavailable","MOORE CORE 2","","12","S","19","E","2","-95.2630535","39.0350392","   NE SE","32","11.5","308.4","NO"
"Kansas","1035181452","KGS","unavailable","KDOT Limestone Project D-49","","12","S","19","E","21","-95.3055763","38.9870368","  SW SW SE","5","9.5","69","NO"
"Kansas","1045383750","KDOT","unavailable","10-23 KA-1826-01 (Bob Billings Pkwy over K-10) CD 2","","12","S","19","E","32","-95.3335299","38.95958","  NW SW SW","5","3.1","48","NO"
"Kansas","1045383748","KDOT","unavailable","10-23 KA-1826-01 (Bob Billings Pkwy over K-10) CD 1","","12","S","19","E","32","-95.3335299","38.95958","  NW SW SW","6","4.6","58","NO"
"Kansas","1045383752","KDOT","unavailable","10-23 KA-1826-01 (Bob Billings Pkwy over K-10) CD 3","","12","S","19","E","32","-95.3335299","38.95958","  NW SW SW","3","6.8","43.8","NO"
"Kansas","1046247478","KDOT","unavailable","32-52 KA-3078-01 (K32 over KTA) CD 1","","12","S","20","E","15","-95.1784098","39.0013782","  SE SE SW","4","29.8","63.3","NO"
"Kansas","1046247479","KDOT","unavailable","32-52 KA-3078-01 (K32 over KTA) CD 2","","12","S","20","E","15","-95.1784098","39.0013782","  SE SE SW","6","37.5","97.5","NO"
"Kansas","1026645643","JENNINGS DRILLING CO.","unavailable","HEMPHILL 1","15-103-20061","12","S","20","E","23","-95.1620568","38.9995288","  NW NE NW","7","435","783","NO"
"Kansas","1026645817","Jennings Drilling Co.","Irick, Kevin B.","IRICK 2","15-103-20187","12","S","21","E","7","-95.1199532","39.0272593"," N2 SW NW NE","2","675","695","NO"
"Kansas","1002927610","JENNINGS DRLG","Irick, Kevin B.","IRICK 1","15-103-20163","12","S","21","E","7","-95.123464","39.0240455","   SE NW","5","725","740","NO"
"Kansas","1027930285","CORBIN E. ROBISON","unavailable","GRAHAM 1","15-103-19027","12","S","21","E","9","-95.0909677","39.0203743","   NW SW","3","","0","NO"
"Kansas","1035181407","KGS","unavailable","KDOT Limestone Project D-13","","12","S","21","E","34","-95.0713067","38.95977","  NE SW SW","5","9","68.1","NO"
"Kansas","1031881223","Kansas Geological Survey","unavailable","Deffenbaugh Quarry 2","15-091-23004","12","S","23","E","1","-94.8054012","39.0391047","  NW SW NE","74","20","864","NO"
"Kansas","1031639552","KANSAS GEOLOGICAL SURVEY","unavailable","DEFFENBAUGH QUARRY 1-B","15-091-22996","12","S","23","E","1","-94.8050081","39.0330987"," S2 SW NW SE","88","16","877","NO"
"Kansas","1006462335","unknown","unavailable","McKIRAHAN THESIS 5","","12","S","24","E","12","-94.6944078","39.0158355","  SW SW SE","4","","0","NO"
"Kansas","1006461406","KDOT","unavailable","35-46 K 1774-01 26.77 26.78","","12","S","24","E","12","-94.6908856","39.0185976","    SE","7","","0","NO"
"Kansas","1006462340","unknown","unavailable","McKIRAHAN THESIS 1","","12","S","24","E","18","-94.781958","39.0129838","   NE NE","21","","0","NO"
"Kansas","1046075185","KDOT/HNTB","unavailable","Johnson County Gateway B-14","","12","S","24","E","32","-94.7729225","38.9569318"," SE SW SE SW","3","6","35","NO"
"Kansas","1046093438","KDOT/HNTB","unavailable","Johnson County Gateway B-16","","12","S","24","E","32","-94.7765354","38.9687241"," NW SE NW NW","3","8.7","30","NO"
"Kansas","1046093436","KDOT/HNTB","unavailable","Johnson County Gateway B-15","","12","S","24","E","32","-94.7752848","38.9605554"," SE SE NW SW","2","38.5","50","NO"
"Kansas","1046093442","KDOT/HNTB","unavailable","Johnson County Gateway B-48","","12","S","24","E","34","-94.7274467","38.9614619"," NW SW NE SE","3","14.1","40","NO"
"Kansas","1006462336","unknown","unavailable","McKIRAHAN THESIS 6","","12","S","24","E","35","-94.7082095","38.9574508","  SW SE SE","3","","0","NO"
"Kansas","1022241638","KDOT","unavailable","KDOT US-56 OVER METCALF AVENUE ","","12","S","25","E","7","-94.6732793","39.015905","  SE SW SE","3","","0","NO"
"Kansas","1006461403","KDOT","unavailable","56-46 K 2855-01 32.37 32.39","","12","S","25","E","9","-94.6395378","39.0223123","    ","2","","0","NO"
"Kansas","1006461404","KDOT","unavailable","56-46 K-2855-01 32.49 32.50","","12","S","25","E","9","-94.6395378","39.0223123","    ","4","","0","NO"
"Kansas","1005693965","Carter Oil Company","unavailable","Davis 2","15-197-70151","13","S","10","E","33","-96.3107142","38.874441","  SW NE SW","38","1850","3406","NO"
"Kansas","1037027145","KDOT","unavailable","4-99-33.01(089) ","","13","S","12","E","3","-96.0669135","38.950016","    ","5","","0","NO"
"Kansas","1037027146","KDOT","unavailable","4-99-33.22(090) ","","13","S","12","E","3","-96.0669135","38.950016","    ","8","","0","NO"
"Kansas","1037027144","KDOT","unavailable","4-99-34.18(091) ","","13","S","12","E","3","-96.0669135","38.950016","    ","4","","0","NO"
"Kansas","1046085192","KDOT","unavailable","4-99 K-0695-01 (K-4 over S Branch Mission Ck) CD 1","","13","S","12","E","21","-96.0854948","38.9027576","    S2","3","4.5","27","NO"
"Kansas","1006461466","KDOT","unavailable","75-89 K-3371-02 (65th St. over US-75) CD 1","","13","S","15","E","2","-95.7129915","38.9514829","   SW NE","3","","0","NO"
"Kansas","1024021569","KDOT","unavailable","N. B. US-75 OVR 77th Street 1","","13","S","15","E","14","-95.7104884","38.9242976","    NE","8","","0","NO"
"Kansas","1006461467","KDOT","unavailable","75-89 K-3371-02 (85th St over US-75 CD 1 A","","13","S","15","E","24","-95.6940393","38.9116454","   NW NE","16","","0","NO"
"Kansas","1024021568","KDOT","unavailable","75-89 K-7317-01 (SB US-75 over BNSF Railway) CD 1","","13","S","15","E","25","-95.6916142","38.8952668","    NE","5","","0","NO"
"Kansas","1035181434","KGS","unavailable","KDOT Limestone Project D-25","","13","S","17","E","11","-95.4925489","38.9413807","  NE NE NW","3","4","39.7","NO"
"Kansas","1035181466","KGS","unavailable","KDOT Limestone Project D-80","","13","S","18","E","32","-95.4356538","38.8724211","  NW SW SE","4","5.8","49.5","NO"
"Kansas","1022241577","KANSAS GEOLOGICAL SURVEY","unavailable","MILLER CORE TEST HOLE 1","","13","S","18","E","35","-95.3824397","38.881511","  SE NE NW","62","13.5","599","NO"
"Kansas","1006461355","KANSAS GEOLOGICAL SURVEY","unavailable","WIRELINE TEST HOLE ","","13","S","18","E","35","-95.3858888","38.8806011","    NW","42","12.6","387","NO"
"Kansas","1037029057","KANSAS GEOLOGICAL SURVEY","unavailable","FOLEY ","","13","S","19","E","2","-95.263694","38.9489056","  NW NE SE","48",".01","293","NO"
"Kansas","1006461354","KANSAS GEOLOGICAL SURVEY","unavailable","31st STREET ","","13","S","19","E","7","-95.3430851","38.9415402","  NW NW NE","9","45","151","NO"
"Kansas","1006461351","KANSAS GEOLOGICAL SURVEY","unavailable","CLINTON 1","","13","S","19","E","7","-95.3430851","38.9415402","  NW NW NE","22","10","218.7","NO"
"Kansas","1046403938","KDOT","unavailable","10-23 K-8392-04 (N Lousiana over Naismith Creek) CD 1","","13","S","19","E","13","-95.2427432","38.9272273","  NE NE NE","3","58.5","92.7","NO"
"Kansas","1002907005","SKELLY OIL CO","unavailable","MIDDLEKAUFF 1","15-045-00009","13","S","19","E","21","-95.3011605","38.9107987","  SW NE NE","1","1664","1670","NO"
"Kansas","1045112467","KDOT","unavailable","59-23 K-7888-01 (US-59 over Rd 1000N) CD 3","","13","S","19","E","25","-95.25898","38.8853483","  SW SW SW","6","4","64","NO"
"Kansas","1045088432","KDOT","unavailable","59-23 K-7888-01 (US-59 over 1000 Rd) CD 1","","13","S","19","E","25","-95.25898","38.8853483","  SW SW SW","6","9.5","59","NO"
"Kansas","1045112469","KDOT","unavailable","59-23 K-7888-01 (US-59 over Pleasant Grove Trib W) CD 2","","13","S","19","E","36","-95.2565903","38.8762837","  NE NW SW","4","35.7","68.8","NO"
"Kansas","1045112468","KDOT","unavailable","59-23 K-7888-01 (US-59 over Pleasant Grove Trib W) CD 1","","13","S","19","E","36","-95.2565903","38.8762837","  NE NW SW","7","38.8","97.5","NO"
"Kansas","1046403952","KDOT","unavailable","10-23 I-8392-04 (E1750 Rd. Over Ramps) CD 1","","13","S","20","E","10","-95.1754152","38.930759","  NW SW SE","4","4.5","52.8","NO"
"Kansas","1046403943","KDOT","unavailable","10-23 K-8392-04 (EB K-10 Flyover to WB 23)) CD 2","","13","S","20","E","10","-95.1707455","38.9362739","  SW SE NE","3","56","87.9","NO"
"Kansas","1046403949","KDOT","unavailable","10-23 K-8392-04 (EB K-10 over North Canal) CD 1","","13","S","20","E","16","-95.1870307","38.9234827","  NE SE NE","3","41.5","72","NO"
"Kansas","1046403951","KDOT","unavailable","10-23 K-8392-04 (Relocated Haskell over N Canal) CD 1","","13","S","20","E","17","-95.2197747","38.9254007","  SE NW NW","3","61","93","NO"
"Kansas","1046403924","KDOT","unavailable","10-23 K-8392-04 (Haskell ramp C over North Canal) CD 1","","13","S","20","E","17","-95.2174501","38.9254102","  SW NE NW","4","56.5","93.6","NO"
"Kansas","1046403950","KDOT","unavailable","10-23 K-8392-04 (K-10 over Naismith Creek) CD 1","","13","S","20","E","18","-95.2404312","38.9272256","  NW NW NW","3","56.5","87.9","NO"
"Kansas","1046403948","KDOT","unavailable","10-23 K-8392-04 (K-10 over Naismith Creek) CD 2","","13","S","20","E","18","-95.2404312","38.9272256","  NW NW NW","3","57","88","NO"
"Kansas","1046403929","KDOT","unavailable","K-8392-04 (K-10 over Relocated E 31st St.) CD 01","","13","S","20","E","18","-95.2404312","38.9272256","  NW NW NW","3","46.7","78.5","NO"
"Kansas","1035181457","KGS","unavailable","KDOT Limestone Project D-71","","13","S","21","E","3","-95.0687896","38.943207","  SW SE SW","5","3.8","60.7","NO"
"Kansas","1035181458","KGS","unavailable","KDOT Limestone Project D-72","","13","S","21","E","10","-95.0616694","38.9359485","  SE SW NE","6","7.5","73","NO"
"Kansas","1044140779","USACE c/o Burns & McDonnell","unavailable","Sunflower Army Ammunition Plant 96-20D","","13","S","21","E","25","-95.0280458","38.8914833","  C NE NE","13","39","155","NO"
"Kansas","1022241582","USACE BURNS & McDONNELL AQUADRILL","unavailable","SUNFLOWER ARMY AMMUNITION PLANT 96-1 D","","13","S","22","E","4","-94.9805159","38.9547936","   NW NW","4","5.7","44.7","NO"
"Kansas","1022241583","USACE BURNS & McDONNELL AQUADRILL","unavailable","SUNFLOWER ARMY AMMUNITION PLANT 96-9 D","","13","S","22","E","7","-95.0124514","38.9403586","   NE NW","2","14.9","32","NO"
"Kansas","1022241581","USACE BURNS & McDONNELL AQUADRILL","unavailable","SUNFLOWER ARMY AMMUNITION PLANT 96-6 D","","13","S","22","E","8","-94.9943146","38.9294218","   SE SW","2","5.1","20","NO"
"Kansas","1045118879","USACE BURNS & McDONNELL AQUADRILL","unavailable","SUNFLOWER ARMY AMMUNITION PLANT 96-8 D","","13","S","22","E","8","-94.9988977","38.9402654","   NW NW","1","14.2","30","NO"
"Kansas","1022241588","USACE BURNS & McDONNELL AQUADRILL","unavailable","SUNFLOWER ARMY AMMUNITION PLANT 96-4 D","","13","S","22","E","8","-94.9850557","38.9329817","   NE SE","2","2.9","16.5","NO"
"Kansas","1022241587","USACE BURNS & McDONNELL AQUADRILL","unavailable","SUNFLOWER ARMY AMMUNITION PLANT 96-17 D","","13","S","22","E","13","-94.9108464","38.9145634","   SE SE","4","29","44.9","NO"
"Kansas","1045118877","USACE BURNS & McDONNELL AQUADRILL","unavailable","SUNFLOWER ARMY AMMUNITION PLANT 96-12 D","","13","S","22","E","18","-95.0123943","38.9258441","   NE NW","2","18","35","NO"
"Kansas","1022241585","USACE BURNS & McDONNELL AQUADRILL","unavailable","SUNFLOWER ARMY AMMUNITION PLANT 96-19 D","","13","S","22","E","30","-95.0033835","38.8967441","   NE NE","3","32.5","47","NO"
"Kansas","1022241586","USACE BURNS & McDONNELL AQUADRILL","unavailable","SUNFLOWER ARMY AMMUNITION PLANT 96-23 D","","13","S","22","E","31","-95.0121777","38.8713762","   SE SW","2","13.4","29","NO"
"Kansas","1026599183","JIM OSBORN GAS & OIL","Butler Petroleum LLC","KEEGAN 4","15-091-21033","13","S","22","E","34","-94.963585","38.8740968"," NW SW NW SW","5","","0","NO"
"Kansas","1046090632","KDOT/HNTB","unavailable","Johnson County Gateway B-3","","13","S","23","E","1","-94.801424","38.9422502"," SW SW SE SE","2","5","19","NO"
"Kansas","1046082745","KDOT/HNTB","unavailable","Johnson County Gateway B-1","","13","S","23","E","2","-94.8223276","38.9421161"," SW SE SW SE","3","19.2","39.5","NO"
"Kansas","1006462339","unknown","unavailable","McKIRAHAN THESIS 8","","13","S","23","E","15","-94.8517059","38.9208516","  SW SW NW","5","","0","NO"
"Kansas","1046082737","KDOT/HNTB","unavailable","Johnson County Gateway B 2","","13","S","24","E","1","-94.7018513","38.9424979"," SW SE SW SW","2","6","19.5","NO"
"Kansas","1045140985","KDOT","unavailable","435-46 K-8262-01 435-46 K-7451-01 (103rd St/US 69) CD 1","","13","S","24","E","2","-94.707089","38.9438447","   SE SE","5","10.3","64","NO"
"Kansas","1046082743","KDOT/HNTB","unavailable","Johnson County Gateway B-34","","13","S","24","E","3","-94.7402405","38.946023"," SE SW NW SW","5","7","51","NO"
"Kansas","1046093434","KDOT/HNTB","unavailable","Johnson County Gateway B-44","","13","S","24","E","3","-94.7321093","38.9560002"," NW NW NW NE","2","8","25.6","NO"
"Kansas","1046075181","KDOT/HNTB","unavailable","Johnson County Gateway B-32","","13","S","24","E","4","-94.7425643","38.943301"," NE SE SE SE","2","20.5","40.5","NO"
"Kansas","1046082739","KDOT/HNTB","unavailable","Johnson County Gateway B-21","","13","S","24","E","4","-94.7542275","38.9433409"," NE SW SE SW","3","14","40","NO"
"Kansas","1046082747","KDOT/HNTB","unavailable","Johnson County Gateway B-22","","13","S","24","E","4","-94.755389","38.9424375"," SW SW SE SW","2","14.8","35","NO"
"Kansas","1046093440","KDOT/HNTB","unavailable","Johnson County Gateway B-12","","13","S","24","E","5","-94.770522","38.9442716"," SE NE SE SW","4","9.2","40.5","NO"
"Kansas","1045648799","KDOT/HNTB","unavailable","Johnson County Gateway B-17","","13","S","24","E","5","-94.7670367","38.9442714"," SW NE SW SE","5","23.5","60.5","NO"
"Kansas","1046093432","KDOT/HNTB","unavailable","Johnson County Gateway B-19","","13","S","24","E","5","-94.7623848","38.9433636"," NW SE SE SE","2","8.5","25.5","NO"
"Kansas","1045648801","KDOT/HNTB","unavailable","Johnson County Gateway B-18","","13","S","24","E","5","-94.7670265","38.9424595"," SW SE SW SE","3","19.2","45.5","NO"
"Kansas","1046075194","KDOT/HNTB","unavailable","Johnson County Gateway B-11","","13","S","24","E","5","-94.7740073","38.9442719"," SW NW SE SW","1","10","20","NO"
"Kansas","1046082741","KDOT/HNTB","unavailable","Johnson County Gateway B-13","","13","S","24","E","5","-94.7728671","38.9478883"," SE NW NE SW","4","4","40","NO"
"Kansas","1046090638","KDOT/HNTB","unavailable","Johnson County Gateway B-5","","13","S","24","E","6","-94.7911181","38.9423508"," SE SW SE SW","2","9.2","28.6","NO"
"Kansas","1046090640","KDOT/HNTB","unavailable","Johnson County Gateway B-8","","13","S","24","E","6","-94.7797902","38.9424625"," SE SE SE SE","6","13","65","NO"
"Kansas","1045648797","KDOT/HNTB","unavailable","Johnson County Gateway B-4A","","13","S","24","E","7","-94.7967747","38.9404781"," SW NW NW NW","2","19.2","30.5","NO"
"Kansas","1046075184","KDOT/HNTB","unavailable","Johnson County Gateway B-7","","13","S","24","E","7","-94.7809206","38.9415437"," NW NE NE NE","4","8","40","NO"
"Kansas","1046090630","KDOT/HNTB","unavailable","Johnson County Gateway B-10","","13","S","24","E","8","-94.773994","38.9415558"," NW NW NE NW","2","23.6","39","NO"
"Kansas","1046093430","KDOT/HNTB","unavailable","Johnson County Gateway B-20","","13","S","24","E","8","-94.7612158","38.9415438"," NE NE NE NE","5","9","56","NO"
"Kansas","1045648795","KDOT/HNTB","unavailable","Johnson County Gateway B-26","","13","S","24","E","9","-94.7448777","38.9396567"," NE SW NE NE","3","11.5","35.5","NO"
"Kansas","1046082749","KDOT/HNTB","unavailable","Johnson County Gateway B-30","","13","S","24","E","9","-94.7518621","38.9332665"," SE NE NE SW","3","16","36","NO"
"Kansas","1045648793","KDOT/HNTB","unavailable","Johnson County Gateway B-28","","13","S","24","E","10","-94.7401906","38.9369013"," SE NW SW NW","2","4.8","25.5","NO"
"Kansas","1045140790","KDOT","unavailable","435-46 K-8262-01 (Flyover Ramp 69S-435W) ","","13","S","24","E","11","-94.7070435","38.9346972","   E2 E2","6","29.2","83.7","NO"
"Kansas","1045140993","KDOT","unavailable","435-46 K-8262-01 (Flyover Rp 69S-435E) CD 1","","13","S","24","E","11","-94.7070435","38.9346972","   E2 E2","6","39","93.6","NO"
"Kansas","1045140997","KDOT","unavailable","435-46 K-8262-01 (Flyover Rp 69S-435E) CD 3","","13","S","24","E","11","-94.7070435","38.9346972","   E2 E2","8","25","92.8","NO"
"Kansas","1045140995","KDOT","unavailable","435-46 K-8262-01 (Flyover Rp 69S-435E) CD 2","","13","S","24","E","11","-94.7070435","38.9346972","   E2 E2","6","55.5","113","NO"
"Kansas","1045140975","KDOT","unavailable","435-46 K-8262-01 (Rp Antioch-69N over Rp 435W-69N) ","","13","S","24","E","12","-94.6883518","38.9347398","   E2 E2","6","2","56","NO"
"Kansas","1045140979","KDOT","unavailable","435-46 KA-7451-01 (I-435 over Indian Creek) CD 1","","13","S","24","E","12","-94.6930304","38.9347284","   W2 E2","3","17.8","38","NO"
"Kansas","1045383742","KDOT","unavailable","435-46 K-7451-01 (I-435 over Indian Ck) CD 2","","13","S","24","E","12","-94.6930304","38.9347284","   W2 E2","8","11","77.7","NO"
"Kansas","1045140983","KDOT","unavailable","435-46 K-8262-01 (Antioch Rd over Indian Creek) CD 1","","13","S","24","E","12","-94.6883521","38.9365795","   SE NE","4","15.1","44","NO"
"Kansas","1045140987","KDOT","unavailable","435-46 K-7451-01 (Rp 69S-435E over 103rd-69S) CD 1","","13","S","24","E","12","-94.7023877","38.9347057","   W2 W2","10","2","81","NO"
"Kansas","1045140981","KDOT","unavailable","435-46 K-8262-01 (Antioch Rd over I-435) 1","","13","S","24","E","12","-94.6883518","38.9347398","   E2 E2","5","16","55.6","NO"
"Kansas","1045120019","KDOT","unavailable","435-46 KA-2100-01 (NB and SB Roe over I-435) CD 3","","13","S","25","E","9","-94.6417175","38.9329969","   NE SW","6","10.7","64.8","NO"
"Kansas","1045101561","KDOT","unavailable","435-46 KA-2100-01 (NB and SB Roe over I-435) CD 01","","13","S","25","E","9","-94.6417175","38.9329969","   NE SW","5","3","51.8","NO"
"Kansas","1045120021","KDOT","unavailable","435-46 KA-2100-01 (NB and SB Roe over I-435) CD 2","","13","S","25","E","9","-94.6417175","38.9329969","   NE SW","5","8.3","56","NO"
"Kansas","1006461413","KDOT","unavailable","209-21 K-3153-01 CD 1","","14","S","4","E","25","-96.9406749","38.8013464","    SW","1","","0","NO"
"Kansas","1002934214","Brandt Oil Co.","unavailable","Buchman 1","15-127-20273","14","S","8","E","10","-96.5024026","38.8506522","  SE SE NE","2","1908","1920","NO"
"Kansas","1027808655","Calpine Natural Gas Co.","Calpine Natural Gas LP","Keller 3-33-14-10","15-197-20264","14","S","10","E","33","-96.3106704","38.7944845","  SW NE NW","76","2182","2634","NO"
"Kansas","1028007411","KANSAS GEOLOGICAL SURVEY","unavailable","MECHASKEY 1","","14","S","18","E","11","-95.3856971","38.8425338","   S2 SW","46","10","386","NO"
"Kansas","1035181462","KGS","unavailable","KDOT Limestone Project D-78","","14","S","18","E","12","-95.3567246","38.8433686","  NW SE SE","3","3.8","42.1","NO"
"Kansas","1035181464","KGS","unavailable","KDOT Limestone Project D-79","","14","S","18","E","13","-95.354361","38.8360765","  NE SE NE","4","7.8","45.1","NO"
"Kansas","1040718642","Kansas Geological Survey","Kansas Geological Survey, University of KS","Douglas County Core Hole 1","15-045-21557","14","S","19","E","8","-95.3275178","38.8420576"," N2 S2 SE SW","147","30.83","1725","YES"
"Kansas","1045112471","KDOT","unavailable","59-23 K-7888-01 (650N Road over US-59) CD 1","","14","S","19","E","14","-95.2635263","38.8322923","  NW NE SE","7","7","62.8","NO"
"Kansas","1045136742","KDOT","unavailable","59-23 K-7888-01 (Road 550N over US-59) CD 2","","14","S","19","E","23","-95.2694133","38.8186455","C    ","6","33.7","92","NO"
"Kansas","1045140786","KDOT","unavailable","59-23 K-7888-01 (Road 550N over US-59) CD 1","","14","S","19","E","23","-95.2694133","38.8186455","C    ","5","2.5","36.9","NO"
"Kansas","1035181460","KGS","unavailable","KDOT Limestone Project D-73","","14","S","19","E","30","-95.3381518","38.7979032","  SW SE SE","4","9.5","48","NO"
"Kansas","1046247477","KDOT","unavailable","59-23 K-7888 CD 1","","14","S","19","E","35","-95.2682462","38.7831556","  SW SW SE","9","4","93.2","NO"
"Kansas","1035181461","KGS","unavailable","KDOT Limestone Project D-75","","14","S","19","E","36","-95.2426089","38.7904843","  SE SE NE","2","4.2","29","NO"
"Kansas","1035024028","KGS","unavailable","KDOT Limestone Project D75A","","14","S","19","E","36","-95.2449401","38.7904821","  SW SE NE","3","6.8","38.8","NO"
"Kansas","1002907321","COLT ENERGY","Colt Energy Inc","HAGERMAN 2","15-045-21158","14","S","20","E","11","-95.1517265","38.8483624","  SW SE NE","14","699","741","NO"
"Kansas","1002907322","COLT ENERGY","Colt Energy Inc","SOUTH CRADY 1","15-045-21159","14","S","20","E","12","-95.1481592","38.8456429","  SW NE SW","7","689","710","NO"
"Kansas","1002907292","COLT ENERGY","Colt Energy Inc","NORTH SCHULTZ 3","15-045-21089","14","S","20","E","12","-95.14541","38.84091","  SE SW SW","1","685","688","NO"
"Kansas","1029099127","Colt Energy Inc.","HB Energy LLC","SCHULTZ 21","15-045-21118","14","S","20","E","13","-95.1357748","38.8283604"," SE NE SW SE","9","717","744","NO"
"Kansas","1029099620","Colt Energy Inc.","HB Energy LLC","SCHULTZ 16","15-045-21113","14","S","20","E","13","-95.1357901","38.8322264","  NE NW SE","20","725","785","NO"
"Kansas","1029099126","Colt Energy Inc.","HB Energy LLC","SCHULTZ 20","15-045-21117","14","S","20","E","13","-95.1357974","38.8296593"," SE SE NW SE","10","725","755","NO"
"Kansas","1029099125","Colt Energy Inc.","HB Energy LLC","SCHULTZ 19","15-045-21116","14","S","20","E","13","-95.1357853","38.8308755","  SE NW SE","18","739","791","NO"
"Kansas","1029099124","Colt Energy Inc.","HB Energy LLC","SCHULTZ 18","15-045-21115","14","S","20","E","13","-95.1360729","38.8309056","  SE NW SE","13","786","831","NO"
"Kansas","1002907239","KANSAS OIL PROPERTIES","Colt Energy Inc","SHEPHARD II 9","15-045-20983","14","S","20","E","13","-95.13779","38.83456"," NE SW SW NE","7","710","729.7","NO"
"Kansas","1002907289","COLT ENERGY","HB Energy LLC","SCHULTZ 5","15-045-21080","14","S","20","E","13","-95.1342516","38.8291787"," NW NW SE SE","6","734","752","NO"
"Kansas","1002907284","COLT ENERGY","Colt Energy Inc","SHEPHARD 12","15-045-21075","14","S","20","E","13","-95.1412267","38.8355699"," SW NE SE NW","10","671","701","NO"
"Kansas","1002907288","COLT ENERGY","HB Energy LLC","SCHULTZ 4","15-045-21079","14","S","20","E","13","-95.1358607","38.8304561"," SE SE NW SE","19","698","753","NO"
"Kansas","1002907285","COLT ENERGY","Colt Energy Inc","SHEPHARD 13","15-045-21076","14","S","20","E","13","-95.1412469","38.8382801","  SE NE NW","29","687","832","NO"
"Kansas","1002907283","COLT ENERGY","Colt Energy Inc","SHEPHARD 11","15-045-21074","14","S","20","E","13","-95.13663","38.83366"," SW SE SW NE","28","680","761","NO"
"Kansas","1002907238","KANSAS OIL PROPERTIES","Colt Energy Inc","SHEPHARD II 8","15-045-20982","14","S","20","E","13","-95.13895","38.83456"," NW SW SW NE","15","37","737.6","NO"
"Kansas","1002907237","KANSAS OIL PROPERTIES","Colt Energy Inc","SHEPHARD II 7","15-045-20981","14","S","20","E","13","-95.1354358","38.835518"," SE NE SW NE","7","715","735.3","NO"
"Kansas","1002907306","COLT ENERGY","Colt Energy Inc","SCHULTZ 23","15-045-21123","14","S","20","E","13","-95.138641","38.8328286","  NW NW SE","1","716","718","NO"
"Kansas","1002907305","COLT ENERGY","HB Energy LLC","SCHULTZ 22","15-045-21122","14","S","20","E","13","-95.1348895","38.8277155","  S2 SW SE","4","734","746","NO"
"Kansas","1002907304","COLT ENERGY","HB Energy LLC","SCHULTZ 17","15-045-21114","14","S","20","E","13","-95.1340775","38.8321781"," SW NW NE SE","20","733","828","NO"
"Kansas","1002907303","COLT ENERGY","HB Energy LLC","SCHULTZ 14","15-045-21111","14","S","20","E","13","-95.1348331","38.8327944","  NW NE SE","5","735","750","NO"
"Kansas","1002907301","COLT ENERGY","HB Energy LLC","SCHULTZ 12","15-045-21109","14","S","20","E","13","-95.1365577","38.831643"," SW NE NW SE","23","727","791.5","NO"
"Kansas","1030281765","Colt Energy Inc.","HB Energy LLC","SCHULTZ 15","15-045-21112","14","S","20","E","13","-95.1331133","38.832779"," NE NW NE SE","16","713","761","NO"
"Kansas","1034571286","COLT ENERGY INC","HB Energy LLC","SCHULTZ 23","15-045-21123-0001","14","S","20","E","13","-95.138641","38.8328286"," NW NW NW SE","6","698","716","NO"
"Kansas","1002907227","KANSAS OIL PROPERTIES","Colt Energy Inc","SHEPHARD 3","15-045-20969","14","S","20","E","13","-95.1400686","38.8355595"," SE NE SE NW","8","725","745.5","NO"
"Kansas","1002907228","KANSAS OIL PROPERTIES","Colt Energy Inc","SHEPHARD II 4","15-045-20970","14","S","20","E","13","-95.13895","38.83531"," SW NW SW NE","15","685","725.8","NO"
"Kansas","1002907229","KANSAS OIL PROPERTIES","Colt Energy Inc","SHEPHARD II 5","15-045-20971","14","S","20","E","13","-95.1400159","38.8355591"," SE NE SE NW","7","688","707.7","NO"
"Kansas","1002907230","KANSAS OIL PROPERTIES","Colt Energy Inc","SHEPHARD II 6","15-045-20972","14","S","20","E","13","-95.13663","38.83547"," SW NE SW NE","12","713","744","NO"
"Kansas","1002907291","COLT ENERGY","Colt Energy Inc","SHEPHARD 14","15-045-21088","14","S","20","E","13","-95.142814","38.840105"," NE NW NE NW","10","711","741","NO"
"Kansas","1002907240","KANSAS OIL PROPERTIES","Colt Energy Inc","SHEPHARD II 10","15-045-20984","14","S","20","E","13","-95.13663","38.83456"," NW SE SW NE","12","712","745.5","NO"
"Kansas","1002907287","COLT ENERGY","HB Energy LLC","SCHULTZ 3","15-045-21078","14","S","20","E","13","-95.134241","38.8317046"," SW NW NE SE","31","688","808","NO"
"Kansas","1002907290","COLT ENERGY","unavailable","SCHULTZ 2","15-045-21081","14","S","20","E","13","-95.1326319","38.8304272"," SE SW NE SE","5","789","804","NO"
"Kansas","1002907297","COLT ENERGY","HB Energy LLC","SCHULTZ 6","15-045-21099","14","S","20","E","13","-95.1366464","38.8272508"," NW SE SW SE","8","724","748","NO"
"Kansas","1002907299","COLT ENERGY","HB Energy LLC","SCHULTZ 10","15-045-21103","14","S","20","E","13","-95.1332238","38.8315582"," SE NW NE SE","16","726","774","NO"
"Kansas","1002907300","COLT ENERGY","HB Energy LLC","SCHULTZ 11","15-045-21104","14","S","20","E","13","-95.1365688","38.8290073"," NW NE SW SE","9","714","738","NO"
"Kansas","1034469006","Colt Energy Inc","Colt Energy Inc","BROWN 'B' 9","15-045-21294","14","S","20","E","14","-95.156672","38.829943"," SE SW NW SE","2","698","710","NO"
"Kansas","1034469008","COLT ENERGY","Colt Energy Inc","J. C. BROWN 'B' 10","15-045-21295","14","S","20","E","14","-95.1564929","38.8293236"," NE NW SW SE","2","703","714","NO"
"Kansas","1034469010","Colt Energy Inc","Colt Energy Inc","BROWN 'B' 11","15-045-21296","14","S","20","E","14","-95.1553225","38.8328904"," NW NE NW SE","2","693","713","NO"
"Kansas","1034469012","Colt Energy Inc","Colt Energy Inc","JOHNSON 12","15-045-21297","14","S","20","E","14","-95.1553062","38.8355757"," SW NE SW NE","2","698","714","NO"
"Kansas","1034469014","Colt Energy Inc","Colt Energy Inc","JOHNSON 13","15-045-21298","14","S","20","E","14","-95.15555","38.834679"," NW SE SW NE","2","693","707","NO"
"Kansas","1034469004","Colt Energy Inc","Colt Energy Inc","J. C. BROWN 'B' 8","15-045-21293","14","S","20","E","14","-95.1562174","38.8309943","  SW NW SE","3","690","708","NO"
"Kansas","1034469016","Colt Energy Inc","Colt Energy Inc","JOHNSON 14","15-045-21299","14","S","20","E","14","-95.155507","38.836424"," NW NE SW NE","3","696","716","NO"
"Kansas","1035024020","KGS","unavailable","KDOT Limestone Project D53C","","14","S","20","E","18","-95.2403402","38.8270377","  SW SW SW","4","7.5","49","NO"
"Kansas","1002907324","COLT ENERGY","Colt Energy Inc","DRAKE 1","15-045-21163","14","S","20","E","24","-95.140108","38.8254929","  NE NE NW","12","751","787","NO"
"Kansas","1035181454","KGS","unavailable","KDOT Limestone Project D-55","","14","S","20","E","28","-95.1874006","38.8032562","  NE NE SE","4","7.9","49","NO"
"Kansas","1045130060","KDOT","unavailable","56-23 KA-0033-01 (US-56 over Mid Fk Tauy Ck Drain) CD 01","","14","S","20","E","31","-95.2357997","38.7831594","  SW SE SW","4","26.5","62.5","NO"
"Kansas","1045130058","KDOT","unavailable","56-23 KA-0033-01 (US-56 over Middle Fork Tauy Ck) CD 01","","14","S","20","E","32","-95.222292","38.7832211","  SW SW SW","4","12.7","47.7","NO"
"Kansas","1045130063","KDOT","unavailable","56-23 KA-0032-01 (US-56 over East Fork Tauy Ck) CD 01","","14","S","20","E","33","-95.1919807","38.7831769","  SE SW SE","3","29.4","55.5","NO"
"Kansas","1028018213","DUFFENS","unavailable","STANLEY 1","","14","S","21","E","3","-95.0685928","38.8686978","  NW NE NW","1","","0","NO"
"Kansas","1037023917","Midwest Energy, Inc.","Paradigm Energy LLC","THOREN 34","15-045-21325","14","S","21","E","6","-95.1179414","38.861955","  NE NW SE","1","670","680","NO"
"Kansas","1037023921","Midwest Energy, Inc.","Paradigm Energy LLC","THOREN 36","15-045-21327","14","S","21","E","6","-95.1171918","38.8615496","  NE NW SE","1","670","680","NO"
"Kansas","1037023931","Midwest Energy, Inc.","Paradigm Energy LLC","THOREN 37","15-045-21328","14","S","21","E","6","-95.112318","38.8672512","  SE NE NE","2","677","691","NO"
"Kansas","1036874930","Midwest Energy, Inc.","Paradigm Energy LLC","THOREN 20","15-045-21311","14","S","21","E","6","-95.1167129","38.8620386","  NE NW SE","1","668","678","NO"
"Kansas","1037023945","Midwest Energy, Inc.","Paradigm Energy LLC","THOREN 35","15-045-21326","14","S","21","E","6","-95.1177309","38.8611559","  NE NW SE","1","669.5","679.5","NO"
"Kansas","1036879764","Enerjex Kansas, Inc.","Paradigm Energy LLC","THOREN 25","15-045-21316","14","S","21","E","6","-95.1146377","38.8653147","  NW SE NE","1","678","688","NO"
"Kansas","1037023911","Midwest Energy, Inc.","Enerjex Kansas, Inc.","THOREN 32","15-045-21323","14","S","21","E","6","-95.115605","38.8640812","  SW SE NE","1","678","688","NO"
"Kansas","1037023936","Enerjex Kansas, Inc.","Paradigm Energy LLC","THOREN 38","15-045-21329","14","S","21","E","6","-95.1134695","38.8672152","  SE NE NE","1","682","692","NO"
"Kansas","1037989909","Enerjex Kansas, Inc.","HB Energy LLC","Voigts 51","15-091-23217","14","S","22","E","8","-94.9850863","38.8492068","  SW SE NE","4","811","825","NO"
"Kansas","1002924442","KELLY CO","Kansas Resource Exploration & Development, LLC","ROBERTS 3-WK","15-091-22805","14","S","22","E","11","-94.9443999","38.8420384"," SE NW SW SW","3","700","713","NO"
"Kansas","1002923705","","Magic Gas Corp.","TUTCHER-GARDNER AIRPORT 14","15-091-21518","14","S","22","E","27","-94.9589654","38.8080721","    NW","4","850","855","NO"
"Kansas","1006462337","Kansas Geological Survey","unavailable","McKIRAHAN THESIS 7","","14","S","23","E","9","-94.8641312","38.8427534","  NE SW S2","3","","0","NO"
"Kansas","1045140484","KDOT","unavailable","35-46 K-9014-01 (159th St over I-35) CD 2","","14","S","23","E","10","-94.8503966","38.8418651","   SW SW","4","4","43","NO"
"Kansas","1045140477","KDOT","unavailable","35-46 K-9014-01 (159th St over I-35) CD 1","","14","S","23","E","10","-94.8503966","38.8418651","   SW SW","3","17","43.7","NO"
"Kansas","1045140788","KDOT","unavailable","35-46 K-9014-01 (Lone Elm Rd over I-35)) CD 1","","14","S","23","E","10","-94.8503966","38.8418651","   SW SW","3","7.5","38","NO"
"Kansas","1006461405","KDOT","unavailable","56-46 K-2418-01 9.55","","14","S","23","E","19","-94.8994563","38.8181878","    ","1","","0","NO"
"Kansas","1031514299","COLT ENERGY, INC.","Colt Energy Inc","EFFERTZ 8-O","15-091-22201","14","S","24","E","18","-94.7825407","38.8271867","  SW SE SE","2","703","709","NO"
"Kansas","1031515252","COLT ENERGY, INC.","Colt Energy Inc","EFFERTZ 10-M","15-091-22204","14","S","24","E","18","-94.7808263","38.8258502","  SE SE SE","3","693","702","NO"
"Kansas","1031518719","COLT ENERGY, INC.","Colt Energy Inc","EFFERTZ 2-M","15-091-22398","14","S","24","E","18","-94.7872503","38.8257754"," SE SW SW SE","2","726","732","NO"
"Kansas","1031518723","COLT ENERGY, INC.","Colt Energy Inc","EFFERTZ 9-R","15-091-22407","14","S","24","E","18","-94.7817791","38.8288548","  NW SE SE","3","705","714","NO"
"Kansas","1031853452","COLT ENERGY, INC.","Colt Energy Inc","EFFERTZ 9-P","15-091-22455","14","S","24","E","18","-94.7816779","38.827864","  NE SE SE","2","700","706","NO"
"Kansas","1035181226","COLT ENERGY, INC.","Colt Energy Inc","EFFERTZ 7-P","15-091-22236","14","S","24","E","18","-94.783293","38.8277732","  NW SE SE","2","711","717","NO"
"Kansas","1031518629","COLT ENERGY, INC.","Colt Energy Inc","EFFERTZ 6-M","15-091-22198","14","S","24","E","18","-94.7841435","38.8258328","  SE SW SE","3","717","726","NO"
"Kansas","1031518630","COLT ENERGY, INC.","Colt Energy Inc","EFFERTZ 8-M","15-091-22200","14","S","24","E","18","-94.7825464","38.8258412","  SW SE SE","3","704","713","NO"
"Kansas","1031518633","COLT ENERGY, INC.","Colt Energy Inc","EFFERTZ 10-O","15-091-22206","14","S","24","E","18","-94.7808207","38.8271957","  SE SE SE","2","702","708","NO"
"Kansas","1031518634","COLT ENERGY, INC.","Colt Energy Inc","EFFERTZ 11-N","15-091-22207","14","S","24","E","18","-94.7799635","38.8265274","  SE SE SE","3","701","710","NO"
"Kansas","1031518714","COLT ENERGY, INC.","Colt Energy Inc","EFFERTZ 4-M","15-091-22382","14","S","24","E","18","-94.7857058","38.8257835"," SW SE SW SE","3","726","735","NO"
"Kansas","1002924049","COLT ENERGY","Colt Energy Inc","EFFERTZ 7-N","15-091-22199","14","S","24","E","18","-94.7834211","38.8265094","  SW SE SE","3","709","718","NO"
"Kansas","1002924050","COLT ENERGY","Colt Energy Inc","EFFERTZ 9-N","15-091-22202","14","S","24","E","18","-94.7816835","38.8265185","  SE SE SE","3","696","705","NO"
"Kansas","1002924171","COLT ENERGY","Colt Energy Inc","EFFERTZ 5-N","15-091-22380","14","S","24","E","18","-94.7849306","38.8265015","  SE SW SE","3","720","729","NO"
"Kansas","1002924188","COLT ENERGY","Colt Energy Inc","EFFERTZ 6-O","15-091-22409","14","S","24","E","18","-94.7827414","38.8270456","    SE","1","720","723","NO"
"Kansas","1002924187","COLT ENERGY","Colt Energy Inc","EFFERTZ 3-R","15-091-22408","14","S","24","E","18","-94.786518","38.82883","  NW SW SE","2","750","756","NO"
"Kansas","1002924192","COLT ENERGY","Colt Energy Inc","EFFERTZ 8-Q","15-091-22413","14","S","24","E","18","-94.7826065","38.8282491","    SE","3","711","720","NO"
"Kansas","1002924193","COLT ENERGY","Colt Energy Inc","EFFERTZ 1-R","15-091-22414","14","S","24","E","18","-94.7880624","38.8288604","  NW SW SE","2","745","751","NO"
"Kansas","1002924190","COLT ENERGY","Colt Energy Inc","EFFERTZ 7-P","15-091-22411","14","S","24","E","18","-94.783434","38.8276434","  NW SE SE","1","717","720","NO"
"Kansas","1002924301","COLT ENERGY","Colt Energy Inc","EFFERTZ 11-P","15-091-22575","14","S","24","E","18","-94.7799585","38.827722","  NE SE SE","1","709","712","NO"
"Kansas","1025686072","","Colt Energy Inc","EFFERTZ 6-G","15-091-21552","14","S","24","E","19","-94.7845575","38.8222331","  SE NW NE","1","710.5","719.4","NO"
"Kansas","1002923918","PRAIRIE RESOURCES","Colt Energy Inc","RIDGEVIEW 11-C","15-091-21954","14","S","24","E","19","-94.789228","38.8236254"," NE SE NE NW","3","702","711","NO"
"Kansas","1025718184","Colt Energy Inc.","Colt Energy Inc","EFFERTZ 2-G","15-091-21550","14","S","24","E","19","-94.7872946","38.8220828","  SW NW NE","1","703","711.4","NO"
"Kansas","1006823270","COLT ENERGY INC","Colt Energy Inc","RIDGEVIEW 10","15-091-22101","14","S","24","E","19","-94.7899792","38.8219764"," SW SE NE NW","2","691","697","NO"
"Kansas","1026599423","PRAIRIE ENERGY CORPORATION","unavailable","EFFERTZ 5-J","15-091-21267","14","S","24","E","19","-94.7881965","38.8183213","    ","1","721.5","730","NO"
"Kansas","1026599759","PRAIRIE ENERGY CORPORATION","Colt Energy Inc","EFFERTZ 2-E","15-091-21546","14","S","24","E","19","-94.787292","38.8208141","  NW SW NE","1","692.5","701.2","NO"
"Kansas","1026599775","PRAIRIE RESOURCES","unavailable","WILLIAMS 22","15-091-21566","14","S","24","E","19","-94.7881965","38.8183213","    ","1","683.5","689.9","NO"
"Kansas","1026599425","PRAIRIE ENERGY CORPORATION","unavailable","EFFERTZ 7-J","15-091-21268","14","S","24","E","19","-94.7881965","38.8183213","    ","1","731.5","737","NO"
"Kansas","1026599649","PRAIRIE ENERGY CORPORATION","unavailable","RIDGEVIEW 1","15-091-21439","14","S","24","E","19","-94.7881965","38.8183213","    ","1","726","735.5","NO"
"Kansas","1026599757","PRAIRIE ENERGY CORPORATION","unavailable","EFFERTZ 2-C","15-091-21545","14","S","24","E","19","-94.7881965","38.8183213","    ","1","683","691.8","NO"
"Kansas","1031514817","COLT, MACK C.","Colt Energy Inc","EFFERTZ 4-I","15-091-22095","14","S","24","E","19","-94.7856651","38.8232472"," NW SE NW NE","3","711","720","NO"
"Kansas","1029096167","","Colt Energy Inc","RIDGEVIEW 3-A","15-091-21523","14","S","24","E","19","-94.795718","38.8223646"," SE SW NW NW","1","715","723","NO"
"Kansas","1029096169","","Colt Energy Inc","RIDGEVIEW 11-A","15-091-21569","14","S","24","E","19","-94.789243","38.8223896"," SE SE NE NW","1","689.5","707.3","NO"
"Kansas","1029096170","","Colt Energy Inc","RIDGEVIEW 9-A","15-091-21570","14","S","24","E","19","-94.7907872","38.8223869"," SW SE NE NW","1","689.5","703.25","NO"
"Kansas","1031521738","COLT, MACK C.","Colt Energy Inc","EFFERTZ 6-I","15-091-22097","14","S","24","E","19","-94.7841209","38.8232499"," NE SE NW NE","3","722","731","NO"
"Kansas","1031519456","PRAIRIE RESOURCES, INC.","Colt Energy Inc","EFFERTZ 7-J","15-091-21578","14","S","24","E","19","-94.7834379","38.8238964","  NW NE NE","1","723","731.5","NO"
"Kansas","1031853453","COLT ENERGY, INC.","Colt Energy Inc","EFFERTZ 11-L","15-091-22537","14","S","24","E","19","-94.779966","38.8251107","  NE NE NE","4","691","703","NO"
"Kansas","1031853454","PRAIRIE RESOURCES, INC.","unavailable","EFFERTZ 6-E","15-091-21548","14","S","24","E","19","-94.7922024","38.8154521","  NE SW NE","1","697","705.6","NO"
"Kansas","1031521643","","Colt Energy Inc","EFFERTZ 4-G","15-091-21551","14","S","24","E","19","-94.7857508","38.822231","  SE NW NE","1","704","712","NO"
"Kansas","1031518572","COLT, MACK C.","Colt Energy Inc","EFFERTZ 6-K","15-091-22098","14","S","24","E","19","-94.7841229","38.8242247"," SE NE NW NE","4","725","737","NO"
"Kansas","1031518574","","Colt Energy Inc","EFFERTZ 4-K","15-091-22113","14","S","24","E","19","-94.7856678","38.8245652"," SW NE NW NE","3","717","726","NO"
"Kansas","1031518575","COLT ENERGY","Colt Energy Inc","EFFERTZ O-G","15-091-22114","14","S","24","E","19","-94.7885753","38.821924","  W2 W2 NE","2","696","702","NO"
"Kansas","1031518573","COLT ENERGY","Colt Energy Inc","EFFERTZ 2-I","15-091-22111","14","S","24","E","19","-94.7872795","38.8232443"," NE SW NW NE","2","707","713","NO"
"Kansas","1031518637","COLT ENERGY, INC.","Colt Energy Inc","EFFERTZ 8-K","15-091-22211","14","S","24","E","19","-94.7825443","38.8245158","  NW NE NE","3","715","724","NO"
"Kansas","1031518641","COLT ENERGY, INC.","Colt Energy Inc","EFFERTZ 8-I","15-091-22239","14","S","24","E","19","-94.782647","38.8233074","  SW NE NE","4","719","731","NO"
"Kansas","1031518642","COLT ENERGY, INC.","Colt Energy Inc","EFFERTZ 4-C","15-091-22240","14","S","24","E","19","-94.7857638","38.8200616","  SE SW NE","2","680","686","NO"
"Kansas","1035181227","COLT ENERGY, INC.","Colt Energy Inc","EFFERTZ 10-K","15-091-22538","14","S","24","E","19","-94.7809299","38.8245186","  NE NE NE","4","687","699","NO"
"Kansas","1002923996","COLT ENERGY","Colt Energy Inc","RIDGEVIEW 11-E","15-091-22103","14","S","24","E","19","-94.7892305","38.8248061","  NE NE NW","2","721","727","NO"
"Kansas","1002924051","COLT ENERGY","Colt Energy Inc","EFFERTZ 9-L","15-091-22210","14","S","24","E","19","-94.7816856","38.8251077","  NE NE NE","3","697","706","NO"
"Kansas","1002924052","COLT ENERGY","Colt Energy Inc","EFFERTZ 1-J","15-091-22212","14","S","24","E","19","-94.7879124","38.8238336","  NW NW NE","3","704","713","NO"
"Kansas","1002924149","COLT ENERGY","Colt Energy Inc","EFFERTZ 1-L","15-091-22352","14","S","24","E","19","-94.787915","38.8250968","  NW NW NE","2","714","720","NO"
"Kansas","1002924150","COLT ENERGY","Colt Energy Inc","EFFERTZ 3-L","15-091-22353","14","S","24","E","19","-94.7864937","38.8250993","  NW NW NE","3","719","728","NO"
"Kansas","1002924153","","Colt Energy Inc","EFFERTZ O-I","15-091-22356","14","S","24","E","19","-94.7885776","38.8230361","  SW NW NE","2","698","704","NO"
"Kansas","1002924154","COLT ENERGY","Colt Energy Inc","RIDGEVIEW 10-D","15-091-22357","14","S","24","E","19","-94.7900189","38.8242281","  NE NE NW","3","710","719","NO"
"Kansas","1002924173","COLT ENERGY","Colt Energy Inc","EFFERTZ 9-H","15-091-22383","14","S","24","E","19","-94.7818388","38.8227733","  SW NE NE","2","706","712","NO"
"Kansas","1002924152","COLT ENERGY","Colt Energy Inc","EFFERTZ 9-J","15-091-22355","14","S","24","E","19","-94.7817182","38.8238582","  NW NE NE","4","703","715","NO"
"Kansas","1002924151","COLT ENERGY","Colt Energy Inc","EFFERTZ 2-K","15-091-22354","14","S","24","E","19","-94.7872119","38.8245076","  NW NW NE","3","714","723","NO"
"Kansas","1002924155","COLT ENERGY","Colt Energy Inc","RIDGEVIEW 12-D","15-091-22358","14","S","24","E","19","-94.7887207","38.8243677","  NE NE NW","3","706","715","NO"
"Kansas","1002923715","PRAIRIE RESOURCES","Colt Energy Inc","EFFERTZ 8-E (6-E?)","15-091-21549","14","S","24","E","19","-94.7826602","38.8211792","  NW SE NE","1","696","704.6","NO"
"Kansas","1002923716","PRAIRIE RESOURCES","Colt Energy Inc","EFFERTZ 8-G","15-091-21553","14","S","24","E","19","-94.7826624","38.8222364","  SW NE NE","1","713.5","722.2","NO"
"Kansas","1002923993","COLT ENERGY","Colt Energy Inc","EFFERTZ 7-L","15-091-22099","14","S","24","E","19","-94.7849319","38.825102","  NE NW NE","4","720","732","NO"
"Kansas","1002923995","COLT ENERGY","Colt Energy Inc","RIDGEVIEW 10-B","15-091-22102","14","S","24","E","19","-94.7899813","38.8229925","  SE NE NW","2","695","701","NO"
"Kansas","1002923992","COLT ENERGY","Colt Energy Inc","EFFERTZ 5-L","15-091-22096","14","S","24","E","19","-94.7833877","38.8251047","  NW NE NE","3","723","732","NO"
"Kansas","1002923994","COLT ENERGY","Colt Energy Inc","RIDGEVIEW 9-C","15-091-22100","14","S","24","E","19","-94.7907897","38.8235952","  SE NE NW","2","700","706","NO"
"Kansas","1002923997","COLT ENERGY","Colt Energy Inc","WILLIAMS 25","15-091-22104","14","S","24","E","19","-94.7933113","38.821037","  N2 S2 NW","4","726","738","NO"
"Kansas","1002924004","COLT ENERGY","Colt Energy Inc","EFFERTZ 3-J","15-091-22112","14","S","24","E","19","-94.7864736","38.8238773","  NW NW NE","2","710","716","NO"
"Kansas","1002923714","PRAIRIE RESOURCES","unavailable","EFFERTZ 4-E","15-091-21547","14","S","24","E","19","-94.7857486","38.8211738","  NE SW NE","1","690","698.6","NO"
"Kansas","1006733409","BRAZOS OIL & GAS CO.","unavailable","HAVER INVESTMENT 1-CT","15-091-70360","14","S","25","E","21","-94.6478354","38.8216024","  NW NE NW","2","505","516","NO"
"Kansas","1037026668","KDOT","unavailable","15-21 K-5032-01 K-15 over West Branch Turkey Creek CD 2","","15","S","2","E","17","-97.2326698","38.747299","    ","4","","0","NO"
"Kansas","1046521585","EPA Ecology and Environment","unavailable","Tri-County Airport MW 23 B","","15","S","5","E","23","-96.8401989","38.7314673","  NE NW SE","11","15","126.5","NO"
"Kansas","1046521583","EPA Ecology and Environment","unavailable","Tri-County Airport MW 17 A","","15","S","6","E","31","-96.8148509","38.7041417","  SW SW NW","5","20","60","NO"
"Kansas","1046521584","EPA Ecology and Environment","unavailable","Tri-County Airport MW 17 B","","15","S","6","E","31","-96.8148509","38.7041417","  SW SW NW","5","50","101.5","NO"
"Kansas","1046521582","EPA Ecology and Environment","unavailable","Tri-County Airport MW 12","","15","S","6","E","31","-96.8125313","38.7023149","  NE NW SW","5","30","64.5","NO"
"Kansas","1028444681","Wolverine Environmental Prod LLC","Wolverine Environmental Prod  LLC","COULTER 'DW' 29","15-111-20430","15","S","12","E","29","-96.1054835","38.7111102","  SW SE SW","103","1693","2196","NO"
"Kansas","1006461417","KDOT","unavailable","56-070 K-0634-01 Dragoon Creek CD 1","","15","S","14","E","27","-95.8364968","38.7117611","   SE SE","2","","0","NO"
"Kansas","1024492421","El Paso Production Company","El Paso Production Company","FCB COREHOLE 3","15-139-20079","15","S","14","E","35","-95.8214952","38.6970676","  E2 SW SE","217","30","6110","NO"
"Kansas","1035024023","KGS","unavailable","KDOT Limestone Project D69C","","15","S","17","E","2","-95.4901066","38.7795813","  SW NW NE","2","3.6","33.6","NO"
"Kansas","1006461843","","unavailable","GRUBAUGH 20-A","","15","S","18","E","12","-95.361965","38.7606048","    ","6","699","738","NO"
"Kansas","1035181456","KGS","unavailable","KDOT Limestone Project D-64","","15","S","18","E","12","-95.3608251","38.7669676","  NW NW NE","4","11.5","50","NO"
"Kansas","1035024002","KGS","unavailable","KDOT Limestone Project F48A","","15","S","18","E","25","-95.3700608","38.7233464","  NW NW NW","3","4","38.1","NO"
"Kansas","1035024004","KGS","unavailable","KDOT Limestone Project F57A","","15","S","18","E","29","-95.4440515","38.7106116","  SW SW SW","3",".5","29.8","NO"
"Kansas","1035024003","KGS","unavailable","KDOT Limestone Project F53B","","15","S","18","E","33","-95.4093182","38.7070224","  SE NE NE","1","4.1","16.1","NO"
"Kansas","1006461421","KDOT","unavailable","56-23 K-2607-01 (56 over Tauy Creek) CD 1","","15","S","19","E","3","-95.2810321","38.7804432","   NE NE","4","","0","NO"
"Kansas","1037026670","KGS","unavailable","Morehead 1","","15","S","19","E","7","-95.3433838","38.7605325","    ","6","","0","NO"
"Kansas","1037026671","KGS","unavailable","Morehead 2","","15","S","19","E","7","-95.3433838","38.7605325","    ","6","","0","NO"
"Kansas","1046247473","KDOT","unavailable","59-23 K-7888-01 (US-59 over 150 N Rd) CD 1","","15","S","19","E","11","-95.2681709","38.7594441","  NW NW SE","4","4","47","NO"
"Kansas","1046095493","KDOT","unavailable","59-23 K-7888-01 (US-59 over Woodson Rd) CD 1","","15","S","19","E","14","-95.2682351","38.7395047","  SW SW SE","3","23.5","51","NO"
"Kansas","1045636146","KDOT","unavailable","59-23 KA-2059-01 (Old US-59 over W Fork Tauy Cr) CD 02","","15","S","19","E","14","-95.2682275","38.741315","  NW SW SE","4","19","57.7","NO"
"Kansas","1045364657","KDOT","unavailable","59-30 K-7889-01 (US-59 over Tauy Ck (N)) 1","","15","S","19","E","14","-95.2670688","38.7404082","   SW SE","3","14","38.8","NO"
"Kansas","1045364655","KDOT","unavailable","59-30 K-7889-01 (US-59 over N Branch Tauy Ck) CD 1","","15","S","19","E","14","-95.2670688","38.7404082","   SW SE","7","21.3","68.6","NO"
"Kansas","1045107597","KDOT","unavailable","59-23 KA-2059-01 (Old US-59 over W Fork Tauy Cr) CD 1","","15","S","19","E","14","-95.2682351","38.7395047","  SW SW SE","4","21","56.6","NO"
"Kansas","1037352786","Black Star 231 Corp.","Black Star 231 Corp.","Coates 1","15-059-25277","15","S","19","E","24","-95.2516349","38.7382"," NE NE NE NW","2","841","857","NO"
"Kansas","1002913506","COLT ENERGY","Colt Energy Inc","JOE BROERS 3","15-059-24448","15","S","20","E","24","-95.1483234","38.7335009","  NW SW NW","6","830","848","NO"
"Kansas","1002913505","COLT ENERGY","Colt Energy Inc","JOE BROERS 4","15-059-24447","15","S","20","E","24","-95.1420829","38.7380726","  NW NE NW","4","820","832","NO"
"Kansas","1031893231","COLT ENERGY, INC.","Colt Energy Inc","BLEAKLEY 35","15-059-24489","15","S","20","E","34","-95.1755844","38.6954671","  SW SW SE","2","728","734","NO"
"Kansas","1002913552","COLT ENERGY","Colt Energy Inc","BLEAKLEY 35","15-059-24585","15","S","20","E","34","-95.1757946","38.6954673","  SW SW SE","4","675","687","NO"
